"자치구","안심 주소","CCTV 용도","위도","경도","CCTV 수량","수정 일시"
"강서구","P253001(A5002)_화곡1동 908-9(호돌이 공원)","도심공원","37.528107","126.84598","1","2021-01-29"
"강서구","P303005_화곡8동 892-17(모태어린이공원)","도심공원","37.52947230596919","126.84962119449848","1","2021-01-29"
"강서구","P263002_화곡2동 883-3 하마터어린이공원","도심공원","37.529998475702186","126.8534461385755","1","2021-01-29"
"강서구","P263001_화곡2동 845-19 뜸부기어린이공원","도심공원","37.530087","126.856926","1","2021-01-29"
"강서구","P253005_화곡1동 355-12(필마어린이공원)","도심공원","37.53159999401031","126.8387571822682","1","2021-01-29"
"강서구","P253005_화곡1동 355-12(필마어린이공원)(보조1)","도심공원","37.53159999401031","126.8387571822682","1","2021-01-29"
"강서구","P303002_화곡8동 341-24_배다리공원 - 카메라 1","도심공원","37.53208","126.84817","1","2021-01-29"
"강서구","P263003_화곡2동 865-1(골말어린이공원)","도심공원","37.533318724063356","126.85618637975429","1","2021-01-29"
"강서구","P253003_화곡1동 354-14 까치어린이공원","도심공원","37.53354","126.84199","1","2021-01-29"
"강서구","P283001_(A3007)화곡4동 806-10(무지개공원)","도심공원","37.533863","126.861244","1","2021-01-29"
"강서구","P303004_화곡동 339-19 더부리어린이공원 - 카메라 1","도심공원","37.53497","126.84667","1","2021-01-29"
"강서구","P253004_화곡1동 372-26 월정어린이공원","도심공원","37.535236","126.83588","1","2021-01-29"
"강서구","P283002_화곡동 819-5 종달새어린이공원","도심공원","37.5354","126.858185","1","2021-01-29"
"강서구","P253002_화곡1동 369-11 은행어린이공원","도심공원","37.535706","126.84044","1","2021-01-29"
"강서구","P303003_화곡동 155-1 안골어린이공원","도심공원","37.53594555793949","126.85072797749488","1","2021-01-29"
"강서구","P283004_화곡4동 468-1(능골어린이공원)","도심공원","37.53673125397755","126.85511853708172","1","2021-01-29"
"강서구","P313004_까치산근린공원2","도심공원","37.53718","126.84319","1","2021-01-29"
"강서구","P303001_(A3019)대무공원 (화곡8동 409-57)","도심공원","37.53825","126.84769","1","2021-01-29"
"강서구","P283006_화곡4동 산22-87(신곡초교인근공원)(보조1)","도심공원","37.53832711777505","126.85520666501253","1","2021-01-29"
"강서구","P283006_화곡4동 산22-87(신곡초교인근공원)","도심공원","37.53834289058768","126.8552065291902","1","2021-01-29"
"강서구","P283003_화곡동 산22-83(봉제산근린공원)","도심공원","37.53883302283684","126.85212349571985","1","2021-01-29"
"강서구","P283003_화곡동 산22-83(봉제산근린공원)(보조1)","도심공원","37.53883302283684","126.85212349571985","1","2021-01-29"
"강서구","P283005_화곡4동 산5-5 (장수동산 개방화장실인근)(보조2)","도심공원","37.5397592032977","126.85873727564026","1","2021-01-29"
"강서구","P283005_화곡4동 산5-5 (장수동산 개방화장실인근)(보조1)","도심공원","37.5397749607506","126.85873431085872","1","2021-01-29"
"강서구","P283005_화곡4동 산5-5 (장수동산 개방화장실인근)","도심공원","37.5397817051636","126.85873142326844","1","2021-01-29"
"강서구","P313007_화곡본동 61-96(비둘기어린이공원)","도심공원","37.54150860761501","126.84695843043393","1","2021-01-29"
"강서구","P313007_화곡본동 61-96(비둘기어린이공원)(보조1)","도심공원","37.54150860761501","126.84695843043393","1","2021-01-29"
"강서구","P313010_화곡본동 산41-6(자연체험학습원 어린이놀이터)(보조2)","도심공원","37.54185540283581","126.85141533547264","1","2021-01-29"
"강서구","P313010_화곡본동 산41-6(자연체험학습원 어린이놀이터)(보조1)","도심공원","37.54187788876569","126.85140665096114","1","2021-01-29"
"강서구","P313013_화곡본동 산22-80(화곡배수지앞)","도심공원","37.54188482343728","126.8546965372776","1","2021-01-29"
"강서구","P313010_화곡본동 산41-6(자연체험학습원 어린이놀이터)","도심공원","37.541893630470476","126.85140085477714","1","2021-01-29"
"강서구","P313002(A5032)_(공원)_봉제산공원 배드민턴장","도심공원","37.541960417795906","126.85495464230494","1","2021-01-29"
"강서구","P313012_화곡본동 산42-9(보조2)(봉제산다목적구장앞)","도심공원","37.5421414","126.853393","1","2021-01-29"
"강서구","P313012_화곡본동 산42-9(봉제산다목적구장앞)","도심공원","37.5421414","126.853393","1","2021-01-29"
"강서구","P313012_화곡본동 산42-9(보조1)(봉제산다목적구장앞)","도심공원","37.542141426173366","126.8533931553925","1","2021-01-29"
"강서구","P313001(A5031)_(공원)봉제산공원 화장실(화곡동 산 42-7)","도심공원","37.54235742445193","126.85236050272658","1","2021-01-29"
"강서구","P163002_등촌2동 560-26(등마초교인근 신설공원)(보조1)","도심공원","37.542437464947","126.86104902714214","1","2021-01-29"
"강서구","P163002_등촌2동 560-26(등마초교인근 신설공원)","도심공원","37.542446477986815","126.86104895022122","1","2021-01-29"
"강서구","P313006_화곡본동 98-22(구름어린이공원)","도심공원","37.54331125163344","126.84410425731398","1","2021-01-29"
"강서구","P313009_화곡본동 46-41(큰별어린이공원)","도심공원","37.54448697250942","126.84889364305093","1","2021-01-29"
"강서구","P313011_화곡본동 산47-16(봉제경로당앞)(보조1)","도심공원","37.54570745859449","126.85201872370419","1","2021-01-29"
"강서구","P313011_화곡본동 산47-16(봉제경로당앞)","도심공원","37.545716502672874","126.85202430552046","1","2021-01-29"
"강서구","P293002_화곡6동 42-125(오리나무쉼터)","도심공원","37.54595253922953","126.85480138158355","1","2021-01-29"
"강서구","P313008_화곡본동 24-128(꿈돌이어린이공원)","도심공원","37.54595337391248","126.8455357584442","1","2021-01-29"
"강서구","P163001_등촌2동 517-1(능안어린이공원)","도심공원","37.54634687080136","126.86018361704734","1","2021-01-29"
"강서구","P273002_화곡3동 1139-1(천사어린이공원)","도심공원","37.54670356397551","126.83302021676638","1","2021-01-29"
"강서구","P273001_화곡3동 1008-32(미리내어린이공원)","도심공원","37.54766396518465","126.83470124211246","1","2021-01-29"
"강서구","P243001_(A3010)(공원)개나리공원(우장산동 75-3)","도심공원","37.54832","126.84407","1","2021-01-29"
"강서구","P243003_우장산동(화곡동) 산60-1 (우장근린공원 다목적운동장)(보조1)","도심공원","37.54942179525143","126.84440731850094","1","2021-01-29"
"강서구","P243003_우장산동(화곡동) 산60-1 (우장근린공원 다목적운동장)","도심공원","37.549433030073494","126.84440155971485","1","2021-01-29"
"강서구","P243002_화곡동 산 60-1(우장근린공원 축구장)","도심공원","37.55017435811362","126.84480261778753","1","2021-01-29"
"강서구","P243002_화곡동 산 60-1(우장근린공원 축구장)(보조1)","도심공원","37.55017435811362","126.84480261778753","1","2021-01-29"
"강서구","P293001_화곡6동 980-2 백연어린이공원(녹지과)","도심공원","37.55067","126.85188","1","2021-01-29"
"강서구","P193001_(A5003)(공원)발음공원(내발산동 697)","도심공원","37.552284","126.83329","1","2021-01-29"
"강서구","P243005_우장산동(화곡동) 산60-1(보조1)(우장산힐링센터 앞)","도심공원","37.5527846","126.843271","1","2021-01-29"
"강서구","P243005_우장산동(화곡동) 산60-1(보조2)(우장산힐링센터 앞)","도심공원","37.5527846","126.843271","1","2021-01-29"
"강서구","P243005_우장산동(화곡동) 산60-1(우장산힐링센터 앞)","도심공원","37.55278460219256","126.84327109479041","1","2021-01-29"
"강서구","P243006_우장산동(내발산동) 산19-1(보조1)(우장산책로입구)","도심공원","37.55325735252568","126.84258200520504","1","2021-01-29"
"강서구","P243008_우장산동(내발산동) 산4-5(검덕산주창장입구)","도심공원","37.55425308310691","126.84346115481568","1","2021-01-29"
"강서구","P183010(SC공원08) - 마곡중앙로 어린이공원2호 내","도심공원","37.55555377","126.826978","1","2021-01-29"
"강서구","P183005(SC공원14) - 마곡중앙로 남쪽 끝 지점 교차 사거리 14단지 지점","도심공원","37.55575215252046","126.82576485242659","1","2021-01-29"
"강서구","P243007_우장산동(내발산동) 산4-5(검덕산산책로삼거리)","도심공원","37.5561321","126.84473","1","2021-01-29"
"강서구","P243007_우장산동(내발산동) 산4-5(보조1)(검덕산산책로삼거리)","도심공원","37.5561321","126.84473","1","2021-01-29"
"강서구","P243007_우장산동(내발산동) 산4-5(보조2)(검덕산산책로삼거리)","도심공원","37.5561321","126.84473","1","2021-01-29"
"강서구","P233002_염창동 산32-8(염창근린공원진입로)","도심공원","37.5563182","126.867929","1","2021-01-29"
"강서구","P233002_염창동 산32-8(보조1)(염창근린공원 진입로)","도심공원","37.55631826623817","126.86792943521094","1","2021-01-29"
"강서구","P183006(SC공원04) - 마곡서로 근린공원3호 내","도심공원","37.556756076515434","126.82042563054163","1","2021-01-29"
"강서구","P143002_공항동 668(장미어린이공원)","도심공원","37.556777373566845","126.81397763944699","1","2021-01-29"
"강서구","P183013(SC공원13) - 방화대로 어린이공원8호 앞","도심공원","37.55714659982757","126.81703117061886","1","2021-01-29"
"강서구","P183013(SC공원13) - 방화대로 어린이공원8호 앞(보조1)","도심공원","37.55714659982757","126.81703117061886","1","2021-01-29"
"강서구","P183007(SC공원03) - 마곡서로 근린공원3호 내","도심공원","37.55741246281537","126.8217160332218","1","2021-01-29"
"강서구","P233001_염창동 산30-9 (염창근린공원입구/성은교회뒤)(보조1)","도심공원","37.559008667091525","126.86564306306708","1","2021-01-29"
"강서구","P233001_염창동 산30-9 (염창근린공원입구/성은교회뒤)","도심공원","37.559017680114046","126.86564298665354","1","2021-01-29"
"강서구","P173008_등촌3동 695-4(백합어린이공원)","도심공원","37.559161504962475","126.84493905032227","1","2021-01-29"
"강서구","P133004_가양3동 1489-1(비둘기어린이공원)","도심공원","37.55966203796922","126.86311264590382","1","2021-01-29"
"강서구","P133004_가양3동 1489-1(비둘기어린이공원)(보조1)","도심공원","37.55966203796922","126.86311264590382","1","2021-01-29"
"강서구","P173002_원당근린공원2(등촌3동 690-5)","도심공원","37.559696","126.842224","1","2021-01-29"
"강서구","P183022(SC공원27) - 마곡동로4길 연결녹지27호 내","도심공원","37.55974385035721","126.8364876806887","1","2021-01-29"
"강서구","P173003_원당근린공원3(등촌3동 690-5)","도심공원","37.559826","126.84161","1","2021-01-29"
"강서구","P183018(SC공원21) - 공항대로 마곡역 좌측 연결녹지21호 내","도심공원","37.560103623147846","126.82647121440179","1","2021-01-29"
"강서구","P173001_원당근린공원1(등촌3동 690-5)","도심공원","37.560135","126.84169","1","2021-01-29"
"강서구","P143001_공항동 42-11(송정어린이공원)","도심공원","37.56066438174268","126.81126424242049","1","2021-01-29"
"강서구","P173007_등촌3동 688-3(새벗어린이공원)","도심공원","37.560668994746","126.84008266906386","1","2021-01-29"
"강서구","P183021(SC공원25) - 연결녹지25호 내","도심공원","37.56080413324476","126.83428342449186","1","2021-01-29"
"강서구","P183012(SC공원12)_공항대로 어린이공원7호 앞","도심공원","37.56103198963503","126.8180798252305","1","2021-01-29"
"강서구","P133001_가양동 1485-5 황금내근린공원 #01 - 카메라 1","도심공원","37.56117","126.86532","1","2021-01-29"
"강서구","P133002_가양동 1485-5 황금내근린공원 #02 - 카메라 1","도심공원","37.561943","126.864174","1","2021-01-29"
"강서구","P183008(SC공원10) - 어린이공원5호 내","도심공원","37.56294814","126.818418","1","2021-01-29"
"강서구","P173004_등촌어린이공원1(등촌3동 687-4)","도심공원","37.563286","126.84124","1","2021-01-29"
"강서구","P183011(SC공원11) - 마곡중앙3로 어린이공원6호 앞","도심공원","37.563403561850244","126.82259868434215","1","2021-01-29"
"강서구","P183011(SC공원11) - 마곡중앙3로 어린이공원6호 앞(보조1)","도심공원","37.563403561850244","126.82259868434215","1","2021-01-29"
"강서구","P133003_가양동 1485-5 황금내근린공원 #03 - 카메라 1","도심공원","37.56346083109702","126.86137621121776","1","2021-01-29"
"강서구","P173005_등촌어린이공원2(등촌3동 687-4)","도심공원","37.56366","126.84222","1","2021-01-29"
"강서구","P123001_가양2동 1481-1 풀피리어린이공원(녹지과)","도심공원","37.563747","126.85455","1","2021-01-29"
"강서구","P173006_등촌어린이공원3(등촌3동 687-4)","도심공원","37.56381","126.84146","1","2021-01-29"
"강서구","P183009(SC공원09) - 마곡서1로 8단지 인근 어린이공원4호 내","도심공원","37.56501272","126.8191114","1","2021-01-29"
"강서구","P183001(SC공원01) - 마곡중앙5로 근린공원2호 내","도심공원","37.56651226892471","126.82145801560064","1","2021-01-29"
"강서구","P183002(SC공원02) - 마곡중앙5로 근린공원2호 내","도심공원","37.56673216259027","126.82247229307353","1","2021-01-29"
"강서구","P123002_가양2동 1471 구암근린공원","도심공원","37.567608","126.852234","1","2021-01-29"
"강서구","P183003(SC공원06) - 마곡중앙5로 소공원1호 내","도심공원","37.56777455842502","126.82192215282427","1","2021-01-29"
"강서구","P213001_방화2동 583 새싹어린이교통공원","도심공원","37.56948","126.809425","1","2021-01-29"
"강서구","P183004(SC공원07) - 마곡서로 어린이공원 3호 내","도심공원","37.570669816645264","126.82462214861745","1","2021-01-29"
"강서구","P203001_방화1동 266-24 쌈지어린이공원(녹지과)","도심공원","37.57133","126.81482","1","2021-01-29"
"강서구","P203003_방화1동 184-66(도레미어린이공원)","도심공원","37.57184159166425","126.81952702778088","1","2021-01-29"
"강서구","P113003_가양1동 1459-1(나들이어린이공원)","도심공원","37.571843212506366","126.84409758030456","1","2021-01-29"
"강서구","P113002(A5027)_(공원)궁산공원 입구","도심공원","37.572525","126.83893","1","2021-01-29"
"강서구","P213002_방화2동 558 샛별어린이공원","도심공원","37.57266","126.80949","1","2021-01-29"
"강서구","P223004_방화3동 842 옹기골근린공원3","도심공원","37.573544","126.82129","1","2021-01-29"
"강서구","P223002_방화3동 842 옹기골근린공원1","도심공원","37.573631639251055","126.82078505325885","1","2021-01-29"
"강서구","P223003_방화3동 842 옹기골근린공원2","도심공원","37.57382708467191","126.82077636227353","1","2021-01-29"
"강서구","P113004_가양1동 1456(궁산공원등산로입구)","도심공원","37.57421692253992","126.84279927857878","1","2021-01-29"
"강서구","P113001(A5026)_(공원)_궁산공원 뒤쪽","도심공원","37.5742715108795","126.83929818764","1","2021-01-29"
"강서구","P203002_방화1동 448-5 새싹공원","도심공원","37.57488","126.81272","1","2021-01-29"
"강서구","P223008_방화3동 837 돌샘어린이공원","도심공원","37.576054","126.81893","1","2021-01-29"
"강서구","P223012_방화3동 139(서남환경공원내 풋살경기장 앞)","도심공원","37.577346","126.820195","1","2021-01-29"
"강서구","P223012_방화3동 139(서남환경공원내 풋살경기장 앞)(보조1)","도심공원","37.577346","126.820195","1","2021-01-29"
"강서구","P223010_방화3동 830-6(금낭화로 146 공원) - 카메라 1","도심공원","37.57789","126.81325","1","2021-01-29"
"강서구","P223010_방화3동 830-6(금낭화로 146 공원)(보조1) - 카메라 1","도심공원","37.57789","126.81325","1","2021-01-29"
"강서구","P223010_방화3동 830-6(금낭화로 146 공원)(보조2) - 카메라 1","도심공원","37.57789","126.81325","1","2021-01-29"
"강서구","P223011_방화3동 산157-10(개화산 공원)","도심공원","37.57877192776652","126.80754420227028","1","2021-01-29"
"강서구","P213003_개화동 458","도심공원","37.57928520809226","126.80153423087472","1","2021-01-29"
"강서구","P223001_방화3동 799 느티어린이공원(녹지과)","도심공원","37.57936","126.81031","1","2021-01-29"
"강서구","P223006(A5029)_방화3동 855 방화공원 입구","도심공원","37.58105842486086","126.81380124013269","1","2021-01-29"
"강서구","P223005(A5028)_방화3동 855 방화공원_놀이터옆","도심공원","37.58186450821303","126.81230155871991","1","2021-01-29"
"강서구","P223009_방화3동 855 방화공원_민속놀이마당","도심공원","37.582245","126.81319","1","2021-01-29"
"강서구","P223009_방화3동 855 방화공원_민속놀이마당(보조1)","도심공원","37.582245","126.81319","1","2021-01-29"
"강서구","P223007(A5030)_방화3동 855 방화공원 꿩고개화장실","도심공원","37.582251433665334","126.81397046112849","1","2021-01-29"
"강서구","C251021(A2047)_화곡1동 932-8","방범","37.527225","126.84068","1","2021-01-29"
"강서구","C251076_화곡1동 930-7(고정3) 웰라이빌 아파트 방향","방범","37.52758708225663","126.84305645969498","1","2021-01-29"
"강서구","C251076_화곡1동 930-7(고정2) S오일 주유소 국회대로 방향","방범","37.52759496865827","126.84305639053099","1","2021-01-29"
"강서구","C251076_화곡1동 930-7(고정1) 화곡 보람 더하임 아파트 방향","방범","37.52761074146154","126.84305625220294","1","2021-01-29"
"강서구","C251081_화곡1동 934-47(고정3) 화곡 보람더하임 아파트 방향","방범","37.527717973334646","126.83965723914475","1","2021-01-29"
"강서구","C251081_화곡1동 934-47(고정4) 국회대로 방향","방범","37.527722464026986","126.83965437018797","1","2021-01-29"
"강서구","C251081_화곡1동 934-47(고정2) 월정로 15길 7 광우빌라 방향","방범","37.527724733102715","126.83965717955433","1","2021-01-29"
"강서구","C251081_화곡1동 934-47(고정1) 샤르망 빌딩 방향","방범","37.527725843911014","126.83965434039261","1","2021-01-29"
"강서구","C251055_화곡1동 911-30","방범","37.52776930503516","126.84381313318515","1","2021-01-29"
"강서구","C251038_화곡1동 934-5 - 카메라 1","방범","37.52782","126.84161","1","2021-01-29"
"강서구","C251020(A2046)_화곡1동 909-1","방범","37.527996","126.84584","1","2021-01-29"
"강서구","C251075_화곡1동 911-3(고정1) 국회대로 방향","방범","37.52830285436372","126.84433189673713","1","2021-01-29"
"강서구","C251092_화곡1동 927-6(고정1) 월정로 101 샤르망 빌딩 방향","방범","37.52841123100001","126.8415355050347","1","2021-01-29"
"강서구","C251092_화곡1동 927-6(고정2) 궁전 아파트 호돌이공원 방향","방범","37.528422497283046","126.8415354059973","1","2021-01-29"
"강서구","C251091_화곡1동 910-1(고정1) 웰라이빌 아파트 방향","방범","37.528439339333396","126.84578218280188","1","2021-01-29"
"강서구","C251091_화곡1동 910-1(고정2) 화곡 고가사거리 방향","방범","37.52845287455765","126.84578489398424","1","2021-01-29"
"강서구","C251085_화곡1동 927-7(고정3) 한양아이클래스빌딩 방향","방범","37.52865884470024","126.84148947257236","1","2021-01-29"
"강서구","C251085_화곡1동 927-7(고정2) 화곡 더하임 보람아파트 방향","방범","37.52866335910129","126.84149084758751","1","2021-01-29"
"강서구","C251085_화곡1동 927-7(고정1) 지석 아파트 방향","방범","37.528665612357784","126.8414908277785","1","2021-01-29"
"강서구","C251086_화곡1동 904-13(보조1) 호돌이공원 방향","방범","37.52872937218938","126.84729338313245","1","2021-01-29"
"강서구","C251086_화곡1동 904-13","방범","37.528731641085535","126.84729619277026","1","2021-01-29"
"강서구","C251042(A7008)[경찰방범]_화곡1동 936-4","방범","37.528767","126.84022","1","2021-01-29"
"강서구","C301010_(유통)화곡8동 888-1","방범","37.52885","126.850716","1","2021-01-29"
"강서구","C251074_화곡1동 923-3(고정1) 강서로 7길 132 하나 어린이집 방향","방범","37.528953571642035","126.84140624316514","1","2021-01-29"
"강서구","C251074_화곡1동 923-3(고정2)한양 아이클래스 방향","방범","37.52895358742021","126.84140907244247","1","2021-01-29"
"강서구","C301038_화곡8동 887-11(고정2) 삼익 아파트 방향","방범","37.52899487571514","126.85172193943531","1","2021-01-29"
"강서구","C301038_화곡8동 887-11(고정1) 율창 아파트 방향","방범","37.529006157551045","126.85172467121306","1","2021-01-29"
"강서구","C251074_화곡1동 923-3(고정4) 곰달래로 18길 3 남광아파트 방향","방범","37.529032404056906","126.84139989119204","1","2021-01-29"
"강서구","C251074_화곡1동 923-3(고정3) 웰라이빌 아파트 방향","방범","37.52903464153481","126.84139704209963","1","2021-01-29"
"강서구","C251101_화곡1동 926-10(고정2) - 곰돌이공원 방향","방범","37.5291466","126.842198","1","2021-01-29"
"강서구","C251101_화곡1동 926-10(고정1) - 영광교회 방향","방범","37.52914667985091","126.84219857541518","1","2021-01-29"
"강서구","C261009(A1086)_(유통)화곡2동 885-6","방범","37.529167","126.8532","1","2021-01-29"
"강서구","C261009(A1086)_(유통)화곡2동 885-6(보조1) 화곡2동성당 방향","방범","37.529167","126.8532","1","2021-01-29"
"강서구","C251045(A8016)_화곡1동 925-7 (강서로7길90)","방범","37.52925","126.84291","1","2021-01-29"
"강서구","C261027_화곡2동 885-1(고정1) 은창 아파트 방향","방범","37.5292787","126.854181","1","2021-01-29"
"강서구","C261027_화곡2동 885-1(고정2) 삼성 아파트 방향","방범","37.5292787","126.854181","1","2021-01-29"
"강서구","C251049_화곡1동 922-13","방범","37.529366","126.84017","1","2021-01-29"
"강서구","C251049_화곡1동 922-13(보조1) 하나어린이집방향","방범","37.529366","126.84017","1","2021-01-29"
"강서구","C251049_화곡1동 922-13(보조2) 월정로18길 20방향","방범","37.529366","126.84017","1","2021-01-29"
"강서구","C301016(A4031)_화곡8동 893-1","방범","37.529385","126.84936","1","2021-01-29"
"강서구","C301016(A4031)_화곡8동 893-1(보조1) 강서로5라길 33 장미맨션 방향","방범","37.529385","126.84936","1","2021-01-29"
"강서구","C261004(A1080)_(유통)화곡2동 854-1","방범","37.529424114151276","126.85521540684697","1","2021-01-29"
"강서구","C251099_화곡1동 938-2(고정4) - 곰달래로 방향","방범","37.5295609","126.840223","1","2021-01-29"
"강서구","C251099_화곡1동 938-2(고정2) - 모텔로데오 방향","방범","37.52956097517514","126.84022337794232","1","2021-01-29"
"강서구","C261028_화곡2동 845-17(고정1) 국회대로 방향","방범","37.52958511299472","126.85664005971303","1","2021-01-29"
"강서구","C261028_화곡2동 845-17(고정2) 신도 아파트 방향","방범","37.52959415687327","126.85664564091743","1","2021-01-29"
"강서구","C261028_화곡2동 845-17(고정3) 곰달래 아파트 방향","방범","37.529616597021054","126.85662847151378","1","2021-01-29"
"강서구","C261028_화곡2동 845-17(고정4) 뜸부기 어린이공원 방향","방범","37.52962116520145","126.85663975004964","1","2021-01-29"
"강서구","C261035_화곡2동 852-16(고정1) 국회대로 방향","방범","37.5296370019805","126.85541163531611","1","2021-01-29"
"강서구","C301026_화곡8동 879-6","방범","37.529643","126.851572","1","2021-01-29"
"강서구","C301026_화곡8동 879-6(보조1) 하마터 어린이공원 방향","방범","37.529643022705415","126.85157202815209","1","2021-01-29"
"강서구","C301026_화곡8동 879-6(보조2) 강서로 8길 방향","방범","37.529643022705415","126.85157202815209","1","2021-01-29"
"강서구","I306002_화곡8동 893-1 (KT화곡지사)","방범","37.5297","126.84811","1","2021-01-29"
"강서구","C251115_화곡1동 900-46(고정2)","방범","37.5297226","126.845193","1","2021-01-29"
"강서구","C251115_화곡1동 900-46(고정3)","방범","37.5297226","126.845193","1","2021-01-29"
"강서구","C251115_화곡1동 900-46(고정1)","방범","37.52972266994471","126.84519326451971","1","2021-01-29"
"강서구","C251099_화곡1동 938-2(고정3) - 월정로 방향","방범","37.5297648","126.84081","1","2021-01-29"
"강서구","C251099_화곡1동 938-2(고정1) - 유림노르웨이숲아파트 방향","방범","37.52976480128411","126.84081010742392","1","2021-01-29"
"강서구","C261008(A1085)_화곡2동 884-13","방범","37.52976869519315","126.85312147796378","1","2021-01-29"
"강서구","C261008(A1085)_화곡2동 884-13(보조1) 삼익 아파트 방향","방범","37.52977","126.853134","1","2021-01-29"
"강서구","C251037(A4016)_화곡1동 916-12(보조1) 효심공원방향","방범","37.529865","126.84274","1","2021-01-29"
"강서구","C251037(A4016)_화곡1동 925-1(구 916-5)","방범","37.529865","126.84274","1","2021-01-29"
"강서구","C251100_화곡1동 924-21(고정3) - 유림노르웨이숲 방향","방범","37.5298654","126.841499","1","2021-01-29"
"강서구","C251100_화곡1동 924-21(고정1) - 효심공원 방향","방범","37.52986546754404","126.8414992287978","1","2021-01-29"
"강서구","C251102_화곡1동 920-11(고정1) - 신성월드오피스텔 방향","방범","37.5298943","126.842134","1","2021-01-29"
"강서구","C251100_화곡1동 924-21(고정4) - 곰달래로 방향","방범","37.5299299","126.841337","1","2021-01-29"
"강서구","C251100_화곡1동 924-21(고정2) - 삼성빌라 방향","방범","37.52992991260592","126.84133738340672","1","2021-01-29"
"강서구","C281036_화곡4동 842-11(고정3) 세븐일레븐 편의점(곰달래로 50길 19) 방향","방범","37.53000214347827","126.8583256641206","1","2021-01-29"
"강서구","C281036_화곡4동 842-11(고정2) 국회대로 방향","방범","37.53000668075166","126.85833128416676","1","2021-01-29"
"강서구","C281036_화곡4동 842-11(고정1) 삼성 아파트 방향","방범","37.53001118727869","126.85833124556005","1","2021-01-29"
"강서구","C281041_화곡4동 842-33(고정3) 곰달래 아파트 방향","방범","37.5300218397651","126.85884045690962","1","2021-01-29"
"강서구","C281041_화곡4동 842-33(고정1) 국회대로 7길 38-4 형제빌라 방향","방범","37.5300386777988","126.85882899493668","1","2021-01-29"
"강서구","C281041_화곡4동 842-33(고정2) 우영 아파트 방향","방범","37.530049928756156","126.85882606916605","1","2021-01-29"
"강서구","C251062_화곡1동 918-24(고정1) 해태드림타운방향","방범","37.53006695028439","126.8450917261901","1","2021-01-29"
"강서구","C251062_화곡1동 918-24(고정2) 강서뉴아파트방향","방범","37.53006695028439","126.8450917261901","1","2021-01-29"
"강서구","C261011(A3002)_화곡2동 852-20","방범","37.530098","126.85512","1","2021-01-29"
"강서구","C261011(A3002)_화곡2동 852-20(보조1) 하마터어린이공원 방향","방범","37.530098","126.85512","1","2021-01-29"
"강서구","C261040_화곡2동 882-25(고정2)","방범","37.5301125","126.851547","1","2021-01-29"
"강서구","C261040_화곡2동 882-25(고정1)","방범","37.530112598465195","126.85154709422419","1","2021-01-29"
"강서구","C261034_화곡2동 882-25(고정2) 삼익아파트 방향","방범","37.53016313743123","126.85149678888884","1","2021-01-29"
"강서구","C261034_화곡2동 882-25(고정1) 곰달래로 방향","방범","37.53016989721249","126.85149673036162","1","2021-01-29"
"강서구","C281004(A1100)_화곡4동 790-6","방범","37.530170184728846","126.85939376212836","1","2021-01-29"
"강서구","C281009_화곡4동 785-11","방범","37.53024","126.86202","1","2021-01-29"
"강서구","C281009_화곡4동 785-11(보조1) 흥영그레이스 아파트 방향","방범","37.53024","126.86202","1","2021-01-29"
"강서구","C301011(A1133)_화곡8동 895-1","방범","37.53035","126.85042","1","2021-01-29"
"강서구","C301011(A1133)_화곡8동895-1(보조1) 강서로 대로 방향","방범","37.53035","126.85042","1","2021-01-29"
"강서구","C261042_화곡2동 841-24(고정2)","방범","37.53045","126.858157","1","2021-01-29"
"강서구","C261042_화곡2동 841-24(고정1)","방범","37.53045009432659","126.85815721208584","1","2021-01-29"
"강서구","C261015(A8017)_화곡2동 856-1","방범","37.530457","126.85372","1","2021-01-29"
"강서구","C251023(A3037)_화곡1동 357-14(분기-고정1) 곰달래로15가길 1방향","방범","37.53045975755512","126.83885391150582","1","2021-01-29"
"강서구","C251040(A6042)_화곡1동 424-86","방범","37.530632","126.840546","1","2021-01-29"
"강서구","C261025_화곡2동 875-8(고정2) 강서로 대로 방향","방범","37.53064213900366","126.8529639719248","1","2021-01-29"
"강서구","C261025_화곡2동 875-8(고정1) 소망빌라 강서로10길 108 방향","방범","37.530648852280244","126.85295542548532","1","2021-01-29"
"강서구","C251019(A2045)_화곡1동 426-5","방범","37.530674","126.8425","1","2021-01-29"
"강서구","C251019(A2045)_화곡1동 426-5(보조1) 곰달래로19나길 21방향","방범","37.530674","126.8425","1","2021-01-29"
"강서구","C281018_화곡4동 789-5","방범","37.530716","126.86097","1","2021-01-29"
"강서구","C251090_화곡1동 343-61(고정2) 화곡고가 사거리 방향","방범","37.53074553826526","126.84718527023314","1","2021-01-29"
"강서구","C251041[경찰방범]_화곡1동 343-41","방범","37.53075447841791","126.84595680650085","1","2021-01-29"
"강서구","C251090_화곡1동 343-61(고정1) 화곡터널 방향","방범","37.530754551298315","126.84718519167641","1","2021-01-29"
"강서구","C261003(A1079)_화곡2동 847-14","방범","37.530773","126.856544","1","2021-01-29"
"강서구","C261003(A1079)_화곡2동 847-14 (보조1) 곰달래로 방향","방범","37.530773","126.856544","1","2021-01-29"
"강서구","C251023(A3037)_화곡1동 357-7","방범","37.530804","126.838486","1","2021-01-29"
"강서구","C251023(A3037)_화곡1동 357-7(보조1) 배다리어린이집방향","방범","37.530804","126.838486","1","2021-01-29"
"강서구","C251001(A1073)_화곡1동 343-19","방범","37.53091158227016","126.84542953873058","1","2021-01-29"
"강서구","C251001(A1073)_화곡1동343-19(보조1) 곰달래로19나길 40방향","방범","37.530922","126.84543","1","2021-01-29"
"강서구","C281047_화곡4동 788-28(고정2) - 곰달래로 방향","방범","37.5310148","126.860887","1","2021-01-29"
"강서구","C281047_화곡4동 788-28(고정1) - 곰달래로56길 8 방향","방범","37.53101483499248","126.86088758204755","1","2021-01-29"
"강서구","C301005(A1127)_화곡8동 391-52","방범","37.53112354578341","126.8499435666492","1","2021-01-29"
"강서구","C251007(A2033)화곡1동343-64","방범","37.5311618","126.846448","1","2021-01-29"
"강서구","C281005(A1101)_화곡4동 794-27","방범","37.531178","126.8603","1","2021-01-29"
"강서구","C281005(A1101)_화곡4동 794-27(보조1) 두레어린이공원 방향","방범","37.531178","126.8603","1","2021-01-29"
"강서구","C281016(A8019)_화곡4동 848-2(보조1) 국회대로 곰달래아파트 방향","방범","37.531271138599706","126.85797525166948","1","2021-01-29"
"강서구","C281043_화곡4동 787-22(고정2) - 홍영그레이스 아파트 방향","방범","37.5312746","126.861395","1","2021-01-29"
"강서구","C281043_화곡4동 787-22(고정3) - 달빛공원 방향","방범","37.5312746","126.861395","1","2021-01-29"
"강서구","C281043_화곡4동 787-22(고정1) - 두레 어린이공원 방향","방범","37.531274683197324","126.86139507114244","1","2021-01-29"
"강서구","C281016(A8019)_화곡4동 848-2","방범","37.53127978472819","126.85794048856808","1","2021-01-29"
"강서구","C251043(A7009)[경찰방범]_화곡1동 355-12","방범","37.531303","126.83867","1","2021-01-29"
"강서구","C281015_화곡4동 783-23","방범","37.531307","126.8625","1","2021-01-29"
"강서구","C301019(A8022)_화곡8동 342-68","방범","37.53135","126.848526","1","2021-01-29"
"강서구","C281042_화곡4동 784-25(고정2) - 달빛공원 방향","방범","37.5313542","126.861932","1","2021-01-29"
"강서구","C281042_화곡4동 784-25(고정1) - 두레어린이공원 방향","방범","37.53135429392491","126.86193265886061","1","2021-01-29"
"강서구","C251113_화곡1동 424-80(고정2)","방범","37.5314172","126.840519","1","2021-01-29"
"강서구","C251113_화곡1동 424-80(고정1)","방범","37.53141729159794","126.84051914172497","1","2021-01-29"
"강서구","C301048_화곡8동 159-7(고정2) - 후암아트빌 방향","방범","37.5314241","126.851333","1","2021-01-29"
"강서구","C301048_화곡8동 159-7(고정1) - 곰달래로 방향","방범","37.53142412406008","126.85133307714791","1","2021-01-29"
"강서구","C251051_화곡동 355-55(고정1) 필마공원방향","방범","37.531475687488474","126.8382885809172","1","2021-01-29"
"강서구","C251044[경찰방범]화곡1동 424-65","방범","37.531525","126.84092","1","2021-01-29"
"강서구","C251022(A3036)_화곡1동 424-58","방범","37.531536","126.8397","1","2021-01-29"
"강서구","C261030_화곡2동 872-6(고정2)","방범","37.5315554","126.851858","1","2021-01-29"
"강서구","C261030_화곡2동 872-6(고정3)","방범","37.5315554","126.851858","1","2021-01-29"
"강서구","C261030_화곡2동 872-6(고정1) 곰달래로 33길 12-7 방향","방범","37.531555449328366","126.85185822972184","1","2021-01-29"
"강서구","C301028_화곡8동 342-16(고정1) 강서로 12길 15-15 대안빌라 방향","방범","37.53163051715865","126.84789342475503","1","2021-01-29"
"강서구","C301028_화곡8동 342-16(고정2) 강서로 12길 14-8 목원주택 방향","방범","37.53163051715865","126.84789342475503","1","2021-01-29"
"강서구","C281033_화곡4동 795-5(고정3) 등촌로3길 37 방향","방범","37.53166220895114","126.86152860737671","1","2021-01-29"
"강서구","C281033_화곡4동 795-5(고정2) 블루힐 빌라(곰달래로56길 10)방향","방범","37.531666715479716","126.86152856896004","1","2021-01-29"
"강서구","C281033_화곡4동 795-5(고정1) 흥영그레이스빌 (곰달래로 58길 7-8)방향","방범","37.53167347527258","126.86152851133504","1","2021-01-29"
"강서구","C251057_화곡1동 424-124","방범","37.53171171454984","126.84141028574946","1","2021-01-29"
"강서구","C251057_화곡1동 424-124(보조1) 버들공원방향","방범","37.53171171454984","126.84141028574946","1","2021-01-29"
"강서구","C281032_화곡4동 780-12(고정2) 곰달래로 방향","방범","37.53177043675511","126.8619577726367","1","2021-01-29"
"강서구","C281032_화곡4동 780-12(고정1) 국회대로 방향","방범","37.53177721183523","126.86196054444573","1","2021-01-29"
"강서구","I306001_화곡8동 341-74 (까치산역 2번출구)","방범","37.531796","126.84689","1","2021-01-29"
"강서구","C251009(A2035)_화곡1동 346-85","방범","37.5318","126.84325","1","2021-01-29"
"강서구","C251009(A2035)_화곡1동 346-85(보조1) 화곡동교회방향","방범","37.5318","126.84325","1","2021-01-29"
"강서구","C261021_화곡2동 859-7","방범","37.53180211239603","126.8541055678259","1","2021-01-29"
"강서구","C261031_화곡2동 861-33(고정1) 한솔빌리지(곰달래로37길 12-8)방향","방범","37.531835070458435","126.8547758814623","1","2021-01-29"
"강서구","C281024_화곡4동 781-10 올레포자 옆(고정1) 흥영그레이스빌 (곰달래로 58길 7-8)방향","방범","37.531842089186284","126.86312575740713","1","2021-01-29"
"강서구","C281024_화곡4동 781-10 올레포자 옆(고정2) 곰달래지구대 방향","방범","37.531842089186284","126.86312575740713","1","2021-01-29"
"강서구","C281024_화곡4동 781-10 올레포자 옆(고정3) 달빛공원 방향","방범","37.531842089186284","126.86312575740713","1","2021-01-29"
"강서구","C251080_화곡1동 343-30(고정1) 천사어린이집 방향","방범","37.53186635164439","126.84531084288173","1","2021-01-29"
"강서구","C251059_화곡1동 346-72(고정1) 곰달래로19나길 24방향","방범","37.53186846164005","126.84366121040081","1","2021-01-29"
"강서구","C251059_화곡1동 346-72(고정2) 곰달래로19길 31방향","방범","37.53186846164005","126.84366121040081","1","2021-01-29"
"강서구","C251067_화곡1동 343-30(고정1) 까치산역방향","방범","37.531875996438295","126.84583139155906","1","2021-01-29"
"강서구","C251067_화곡1동 343-30(고정2) 강서로13길 26방향","방범","37.531875996438295","126.84583139155906","1","2021-01-29"
"강서구","C251067_화곡1동 343-30(고정3) 곰달래로23길 115방향","방범","37.531875996438295","126.84583139155906","1","2021-01-29"
"강서구","C251008(A2034)_화곡1동 346-26","방범","37.531933","126.84485","1","2021-01-29"
"강서구","C251008(A2034)_화곡1동 346-26(보조1) 수잔나어린이집방향","방범","37.531933","126.84485","1","2021-01-29"
"강서구","P253007_화곡1동 346-26(다운어린이공원)(보조1)","방범","37.5319593","126.844531","1","2021-01-29"
"강서구","P253007_화곡1동 346-26(다운어린이공원)(보조2)","방범","37.5319593","126.844531","1","2021-01-29"
"강서구","P253007_화곡1동 346-26(다운어린이공원)","방범","37.53195932903061","126.84453140048487","1","2021-01-29"
"강서구","C301020_화곡동 341-43(고정1) - 강서로 12길 15-24 방향","방범","37.532006","126.847704","1","2021-01-29"
"강서구","C251018(A2044)화곡1동 424-34","방범","37.532043","126.84133","1","2021-01-29"
"강서구","C261014(A4020)_화곡2동 834-6","방범","37.53208","126.8563","1","2021-01-29"
"강서구","C261014(A4020)_화곡2동 834-6(보조1) 서울 제일교회 방향","방범","37.53208","126.8563","1","2021-01-29"
"강서구","C301039_화곡8동 392-23(고정1) 배다리공원 방향","방범","37.532127174793764","126.85030835466102","1","2021-01-29"
"강서구","C301046_화곡8동 341-89(고정1) 곰달래로 방향","방범","37.5321280496063","126.84903505532438","1","2021-01-29"
"강서구","C301003(A1125)_화곡8동 159-55","방범","37.53214457511146","126.85080903194047","1","2021-01-29"
"강서구","C251056_화곡1동 422-6","방범","37.532148865429924","126.84221851877596","1","2021-01-29"
"강서구","C251056_화곡1동 422-6(보조1) 곰달래로19길 30방향","방범","37.532148865429924","126.84221851877596","1","2021-01-29"
"강서구","C261006(A1082)_화곡2동 869-39","방범","37.5321527314983","126.85352814775312","1","2021-01-29"
"강서구","C301046_화곡8동 341-89(고정2) 화곡8동 주민센터 방향","방범","37.53217530564911","126.84902332643577","1","2021-01-29"
"강서구","C301033_화곡8동 392-23(고정1) 곰달래로 방향","방범","37.53218457063659","126.85029653861446","1","2021-01-29"
"강서구","C301033_화곡8동 392-23(고정2) 곰달래로 27길 48 나래쉐르빌 방향","방범","37.53218463290152","126.85030785623213","1","2021-01-29"
"강서구","C251094_화곡1동 347-12(고정2) - 다운공원 방향","방범","37.5322065","126.843163","1","2021-01-29"
"강서구","C251094_화곡1동 347-12(고정3) - 귀빈주택 방향","방범","37.5322065","126.843163","1","2021-01-29"
"강서구","C251094_화곡1동 347-12(고정1) - 오화주택 방향","방범","37.53220657854453","126.8431636062834","1","2021-01-29"
"강서구","C261031_화곡2동 861-33(고정3) 곰달래로 방향","방범","37.53226930051674","126.85465329975982","1","2021-01-29"
"강서구","C261031_화곡2동 870-27(고정2) 골말어린이공원 방향","방범","37.532282773696465","126.8546446950346","1","2021-01-29"
"강서구","C251069_화곡1동 359-40(고정1) 월정로28가길 19-20방향","방범","37.53230858273898","126.83813691553486","1","2021-01-29"
"강서구","C281021_화곡4동 839-6","방범","37.53233138319127","126.85901875419917","1","2021-01-29"
"강서구","C281021_화곡4동 839-6(보조1) 곰달래로51길 14 달님별님 어린이집 방향","방범","37.53233138319127","126.85901875419917","1","2021-01-29"
"강서구","C251053_화곡1동 359-101(고정1) 월정로28가길 19-33방향","방범","37.53239","126.83746","1","2021-01-29"
"강서구","C251053_화곡1동 359-101(고정2) 월성약국방향","방범","37.53239","126.83746","1","2021-01-29"
"강서구","C261022_화곡2동 864-45(고정1) 신정초등학교 방향","방범","37.53240156890729","126.85535388802923","1","2021-01-29"
"강서구","C261022_화곡2동 864-45(고정2) 성석교회 방향","방범","37.53240156890729","126.85535388802923","1","2021-01-29"
"강서구","C261022_화곡2동 864-45(고정3) 곰달래로 방향","방범","37.53240156890729","126.85535388802923","1","2021-01-29"
"강서구","S252009_화곡1동 354-61","방범","37.5324289","126.839441","1","2021-01-29"
"강서구","C261032_화곡2동 870-43(고정2) 곰달래로 35길 28-15 주평빌라 방향","방범","37.53247916758156","126.85388468303435","1","2021-01-29"
"강서구","C261013(A4019)_화곡2동 836-14 (구833-1 수정)","방범","37.532536","126.85721","1","2021-01-29"
"강서구","C261013(A4019)_화곡2동 836-14(보조1) 경희 하우스 (곰달래로47길 38)방향","방범","37.532536","126.85721","1","2021-01-29"
"강서구","C301021_화곡8동 158-18(고정1) 소공원 안골 어린이공원 방향","방범","37.53255","126.85128","1","2021-01-29"
"강서구","C301021_화곡8동 158-18(고정2) 곰달래로 방향","방범","37.53255","126.85128","1","2021-01-29"
"강서구","C261044_화곡2동 869-42(고정2)","방범","37.5325506","126.851666","1","2021-01-29"
"강서구","C261044_화곡2동 869-42(고정1)","방범","37.532550681557176","126.85166620198112","1","2021-01-29"
"강서구","C261039_화곡2동 870-24(고정1)","방범","37.532578348857854","126.85457825297096","1","2021-01-29"
"강서구","C281014(A4025)_화곡4동 798-17","방범","37.532608","126.860664","1","2021-01-29"
"강서구","C281014(A4025)_화곡4동 798-17(보조1) 덕원하이츠 빌라 (곰달래로55길 10-6)방향","방범","37.532608","126.860664","1","2021-01-29"
"강서구","C301041_화곡8동 392-42(고정1) 화곡8동 주민센터 방향","방범","37.53283504254652","126.84934157709583","1","2021-01-29"
"강서구","C251010(A2036)_화곡1동 354-54","방범","37.53285","126.840706","1","2021-01-29"
"강서구","C261012(A3003)_화곡2동 865-2","방범","37.5330681","126.8565083","1","2021-01-29"
"강서구","C261012(A3003)_화곡2동 865-2(보조1) 진흥아파트 방향","방범","37.5330681","126.8565083","1","2021-01-29"
"강서구","C251077_화곡1동 354-120(고정1) 복지아파트 방향","방범","37.53308692612873","126.83951086807359","1","2021-01-29"
"강서구","C251070_화곡1동 349-1(고정3) 화원중학교방향","방범","37.533162679687884","126.84380266547154","1","2021-01-29"
"강서구","C251070_화곡1동 349-1(고정2) 강서로방향","방범","37.53317846820086","126.84380535671117","1","2021-01-29"
"강서구","C251070_화곡1동 349-1(고정1) 강서로17길 36방향","방범","37.5331987003361","126.84379669071062","1","2021-01-29"
"강서구","C261032_화곡2동 870-115(고정1) 곰달래로 35길 28-15 주평빌라 방향","방범","37.53322481736635","126.85425741382724","1","2021-01-29"
"강서구","C281037_화곡4동 829-9(고정3) 곰달래로 방향","방범","37.53322860068096","126.85825840698503","1","2021-01-29"
"강서구","C281037_화곡4동 829-9(고정2) 신라쇼핑센터 방향","방범","37.53324434276459","126.85825261293261","1","2021-01-29"
"강서구","C281037_화곡4동 829-9(고정1) 곰달래로51길 46 도토리 어린이집 방향","방범","37.533246549898145","126.8582441052777","1","2021-01-29"
"강서구","C301040_화곡8동 392-9(고정1)곰달래로 방향","방범","37.53327160639068","126.8501952288585","1","2021-01-29"
"강서구","C301045_화곡8동 340-27(고정3) 화곡8동 주민센터 방향","방범","37.533295811290344","126.84831185080622","1","2021-01-29"
"강서구","C301045_화곡8동 340-27(고정4) 선교교회 방향","방범","37.53331156848054","126.84830888411063","1","2021-01-29"
"강서구","C281035_화곡4동 775-11(고정1) 남부시장 방향","방범","37.53331983863976","126.86345840033087","1","2021-01-29"
"강서구","C251035_화곡1동 354-30","방범","37.533325","126.8421","1","2021-01-29"
"강서구","C281044_화곡4동 829-7(고정3) - 신라맨션 방향","방범","37.533359205297685","126.85890115664792","1","2021-01-29"
"강서구","I266001-화곡2동 451-23(신정초등학교 주변)","방범","37.533393891815564","126.85180270535903","1","2021-01-29"
"강서구","C251011(A2037)_화곡1동 359-6","방범","37.533447","126.83812","1","2021-01-29"
"강서구","C251011(A2037)_화곡1동 359-6(보조1) 가로공원로76길 79방향","방범","37.533447","126.83812","1","2021-01-29"
"강서구","C301006_화곡8동 392-1","방범","37.53345713999364","126.84875893655503","1","2021-01-29"
"강서구","G254001(G9001)_화곡1동 362-188","방범","37.53346595316586","126.83919061169578","1","2021-01-29"
"강서구","C301006_화곡8동 392-1(보조1) 까치산역 방향","방범","37.533466","126.84876","1","2021-01-29"
"강서구","C261018_화곡2동 865-1","방범","37.53347793424159","126.85604353163781","1","2021-01-29"
"강서구","C261043_화곡2동 453-15(고정2)","방범","37.5335036","126.852441","1","2021-01-29"
"강서구","C261043_화곡2동 453-15(고정1)","방범","37.53350365894372","126.85244177305753","1","2021-01-29"
"강서구","C281044_화곡4동 829-7(고정1)","방범","37.533522","126.859018","1","2021-01-29"
"강서구","C281044_화곡4동 829-7(고정2) - 남부시장 방향","방범","37.5335220852836","126.85901860517616","1","2021-01-29"
"강서구","C261019_화곡2동 869-63","방범","37.53355128603043","126.8537962050671","1","2021-01-29"
"강서구","C261019_화곡2동 869-63(보조1) 신정초등학교 방향","방범","37.53355128603043","126.8537962050671","1","2021-01-29"
"강서구","C261019_화곡2동 869-63(보조2) 좌측은 대호아파트 방향 우측은 아람마트(등촌로 13바길 98) 방향","방범","37.53355128603043","126.8537962050671","1","2021-01-29"
"강서구","C301045_화곡8동 340-25(고정2) 강서NH농협 까치산역지점 방향","방범","37.53356588168512","126.84702769589032","1","2021-01-29"
"강서구","C301045_화곡8동 340-25(고정1) 선교교회 방향","방범","37.53356815058738","126.84703050569925","1","2021-01-29"
"강서구","C301002_화곡8동 158-1","방범","37.53358","126.85029","1","2021-01-29"
"강서구","C301002_화곡8동 158-1(보조1) 곰달래로 27길 41 방향","방범","37.53358","126.85029","1","2021-01-29"
"강서구","C251103_화곡1동 354-15(고정1) - 하람터어린이집 방향","방범","37.53358946410105","126.84166578505025","1","2021-01-29"
"강서구","C281010(A3006)_화곡4동 802-1","방범","37.533627","126.86005","1","2021-01-29"
"강서구","C261038_화곡2동 832-1(고정1)","방범","37.533669690763624","126.85731429601523","1","2021-01-29"
"강서구","C251012(A2038)_화곡1동 362-102","방범","37.53369","126.839853","1","2021-01-29"
"강서구","C251024(A3038)_화곡1동 350-28","방범","37.53377","126.84429","1","2021-01-29"
"강서구","C251024(A3038)_화곡1동 350-28(보조1) 강서로17가길 18방향","방범","37.53377","126.84429","1","2021-01-29"
"강서구","C281045_화곡4동 774-20(고정2) - 아름어린이집 방향","방범","37.5337784","126.862293","1","2021-01-29"
"강서구","C281045_화곡4동 774-20(고정3) - 재현주택 방향","방범","37.5337784","126.862293","1","2021-01-29"
"강서구","C281045_화곡4동 774-20(고정1) - 무지개공원 방향","방범","37.53377843907816","126.86229327054511","1","2021-01-29"
"강서구","C261007(A1084)_화곡2동 870-1","방범","37.53379045598494","126.8550900985078","1","2021-01-29"
"강서구","C251048_화곡1동 350-37 - 카메라 1","방범","37.533806","126.845276","1","2021-01-29"
"강서구","C251048_화곡1동 350-37(보조1) 까치터널","방범","37.533806","126.845276","1","2021-01-29"
"강서구","C261007(A1084)_화곡2동 870-1(보조1)","방범","37.533806","126.8551","1","2021-01-29"
"강서구","C261029_화곡2동 823-12(고정1) 진흥아파트 방향","방범","37.53387023403336","126.85773792088209","1","2021-01-29"
"강서구","C261029_화곡2동 823-12(고정2) 곰달래로 49길 41 성우빌딩 방향","방범","37.53388373821527","126.85773497546583","1","2021-01-29"
"강서구","C301030_화곡8동 394-24(고정1) 강서로 18길 62-27 인터시티빌라 방향","방범","37.53388985580346","126.84938476055195","1","2021-01-29"
"강서구","C301030_화곡8동 394-24(고정2) 강서로 18길 62-12 소망빌라 방향","방범","37.53388985580346","126.84938476055195","1","2021-01-29"
"강서구","C261020_화곡2동 452-7","방범","37.533910976421076","126.85158600952722","1","2021-01-29"
"강서구","C281020_화곡4동 811-20","방범","37.53399366796837","126.8597204182391","1","2021-01-29"
"강서구","C281011(A4022)_화곡4동 803-1","방범","37.533997","126.8611","1","2021-01-29"
"강서구","C251012(A2038)_화곡1동 362-21(분기-고정1) 월정로30나길 27방향","방범","37.534032402630565","126.84012764094387","1","2021-01-29"
"강서구","C251097_화곡1동 350-22(고정2) - 삼익빌라 방향","방범","37.5341031","126.843236","1","2021-01-29"
"강서구","C251097_화곡1동 350-22(고정1) - 우성아파트 방향","방범","37.534103118119624","126.8432369132849","1","2021-01-29"
"강서구","C251071_화곡1동 366-98(고정2) 까치어린이공원 방향","방범","37.5341054392114","126.84213342334517","1","2021-01-29"
"강서구","C251071_화곡1동 366-98(고정1)좌측길은 가로공원로 대로 방향 우측길은 중앙화곡하이츠 아파트 방향","방범","37.534120116892076","126.84213895363288","1","2021-01-29"
"강서구","C261036_화곡2동 456-13(고정2) - 청산빌라 방향","방범","37.53412043887214","126.85465950731442","1","2021-01-29"
"강서구","C251025(A3039)_화곡1동 366-71","방범","37.534176","126.84125","1","2021-01-29"
"강서구","C261036_화곡2동 456-13(고정1) - 수연빌라 방향","방범","37.534255850958196","126.85469795509998","1","2021-01-29"
"강서구","C251072_화곡1동 352-37(고정1) 가로공원로 73가길 67-24 우성하이츠 빌라 방향","방범","37.53431843491333","126.84254750626975","1","2021-01-29"
"강서구","C251029(A3043)_화곡1동 362-96","방범","37.534330557095494","126.83866516242985","1","2021-01-29"
"강서구","C261002(A1078)_화곡2동 452-33","방범","37.5343565126563","126.8522923870317","1","2021-01-29"
"강서구","C251046(A9019)_화곡1동 373-12 화곡시장","방범","37.534363","126.83798","1","2021-01-29"
"강서구","C251046(A9019)_화곡1동 373-12 화곡시장(보조1) 화곡시장방향","방범","37.534363","126.83798","1","2021-01-29"
"강서구","C261017_화곡2동 161-7","방범","37.534382","126.853763","1","2021-01-29"
"강서구","C261017_화곡2동 161-7(보조1) 제일스카이빌 (곰달래로 31마길 33) 방향","방범","37.534382","126.853763","1","2021-01-29"
"강서구","C301029_화곡8동 385-20(고정1) 두산빌라 강서로20길21-7 방향","방범","37.53438702943325","126.84556611049099","1","2021-01-29"
"강서구","C301029_화곡8동 385-20(고정2) 강서로 화곡터널 방향","방범","37.53438702943325","126.84556611049099","1","2021-01-29"
"강서구","C301029_화곡8동 385-20(고정3) 더부리 어린이공원 방향","방범","37.53438702943325","126.84556611049099","1","2021-01-29"
"강서구","C281034_화곡4동 827-9(고정3) 광명하이츠 27차 (등촌로5가길 46)방향","방범","37.53438892461178","126.8598896460166","1","2021-01-29"
"강서구","C281034_화곡4동 827-9(고정2) 화곡 청소년수련관 방향","방범","37.53439343113683","126.85988960749753","1","2021-01-29"
"강서구","C281034_화곡4동 827-9(고정4) 곰달래로53가길 19 방향","방범","37.53439796833634","126.85989522796522","1","2021-01-29"
"강서구","C281034_화곡4동 827-9(고정1) 등촌로5가길 27 광천쉐르빌 방향","방범","37.53440695071196","126.85988949194031","1","2021-01-29"
"강서구","C301037_화곡8동 338-8(고정1) 까치산시장 방향","방범","37.534419844917146","126.84579502320872","1","2021-01-29"
"강서구","C281022_화곡4동 772-78(고정1) 등촌로 대로 방향","방범","37.53449973534607","126.8628796162254","1","2021-01-29"
"강서구","C281022_화곡4동 772-78(고정2) 성심 아파트 방향","방범","37.53449973534607","126.8628796162254","1","2021-01-29"
"강서구","C281022_화곡4동 772-78(고정3) 곰달래로59길 60 방향","방범","37.53449973534607","126.8628796162254","1","2021-01-29"
"강서구","C281022_화곡4동 772-78(고정4) 성원빌라 (등촌로 49-17) 방향","방범","37.53449973534607","126.8628796162254","1","2021-01-29"
"강서구","C251026(A3040)_화곡1동 351-25","방범","37.534534","126.843","1","2021-01-29"
"강서구","C251026(A3040)_화곡1동 351-25(보조1) 가로공원로76가길 67방향","방범","37.534534","126.843","1","2021-01-29"
"강서구","C281006(A1102)_화곡4동 824-13","방범","37.534573","126.85796","1","2021-01-29"
"강서구","C281006(A1102)_화곡4동 824-13(보조1) 광명하이츠 6차 (곰달래로 49가길 12)방향","방범","37.534573","126.85796","1","2021-01-29"
"강서구","C251106_화곡1동 351-36(고정3) - 중앙화곡하이츠 아파트 방향","방범","37.5346011","126.84337","1","2021-01-29"
"강서구","C251106_화곡1동 351-36(고정2) - 예인빌라 방향","방범","37.53460118204578","126.84337003573283","1","2021-01-29"
"강서구","C301013(A3018)_화곡8동 398-17","방범","37.534657","126.847626","1","2021-01-29"
"강서구","C301013(A3018)_화곡8동 398-17(보조1) 강서로 18다길 17 방향","방범","37.534657","126.847626","1","2021-01-29"
"강서구","C251073_화곡1동 373-19(고정3) 월정로 30가길 16-9 경인빌라 방향","방범","37.53467040461408","126.837385997436","1","2021-01-29"
"강서구","C251073_화곡1동 373-19(고정2)월정초교 방향","방범","37.53467265786643","126.83738597749922","1","2021-01-29"
"강서구","C251073_화곡1동 373-19(고정1)우리은행 화곡동지점 방향","방범","37.534677148494474","126.83738310813439","1","2021-01-29"
"강서구","C251106_화곡1동 351-36(고정1) - 정현빌라 방향","방범","37.534681984550836","126.8433127345936","1","2021-01-29"
"강서구","C281030_화곡4동 821-20(고정2) 곰달래로49가길 10 광명하이츠 6차 방향","방범","37.534709119879615","126.85702614714164","1","2021-01-29"
"강서구","C301017(A4032)_화곡8동 394-18","방범","37.53471","126.84889","1","2021-01-29"
"강서구","C301017(A4032)_화곡8동 394-18(보조1) 강서로 18길 61-9 밀레니엄 맨션 방향","방범","37.53471","126.84889","1","2021-01-29"
"강서구","C281030_화곡4동 821-20(고정1) 능골 어린이공원 방향","방범","37.53471585655393","126.85702184484822","1","2021-01-29"
"강서구","C261005(A1081)_화곡2동 867-1","방범","37.534784948871646","126.85564180282685","1","2021-01-29"
"강서구","C281038_화곡4동 824-27(고정1) 종달새 공원 방향","방범","37.53479938565458","126.85829305055583","1","2021-01-29"
"강서구","P253006_화곡1동 382-20(고정2)","방범","37.534800838471064","126.84501354462198","1","2021-01-29"
"강서구","P253006_화곡1동 382-20(고정1)","방범","37.53480982010613","126.84500780679117","1","2021-01-29"
"강서구","C251028(A3042)_화곡1동 366-57","방범","37.534924","126.84032","1","2021-01-29"
"강서구","C251028(A3042)_화곡1동 366-57(보조1) 가로공원로80가길 18방향","방범","37.534924","126.84032","1","2021-01-29"
"강서구","C281029_화곡4동 824-3(고정2) 종달새 공원 방향","방범","37.53500981832062","126.85866051636533","1","2021-01-29"
"강서구","C281029_화곡4동 824-3(고정1) 등촌로13다길 39 방향","방범","37.53501315979562","126.85865341363008","1","2021-01-29"
"강서구","C281012(A4023)_화곡4동 807-1","방범","37.53502","126.86173","1","2021-01-29"
"강서구","C281012(A4023)_화곡4동 807-1(보조1) 대유 유치원 방향","방범","37.53502","126.86173","1","2021-01-29"
"강서구","C281027_화곡4동 464-6(고정2) 예다움 아파트 방향","방범","37.535021479661616","126.85604157758313","1","2021-01-29"
"강서구","C281027_화곡4동 464-6(고정1) 곰달래로49길 56 GS25편의점 방향","방범","37.535028224013615","126.85603868994083","1","2021-01-29"
"강서구","C261023_화곡2동 163-7(고정1) 안골 어린이공원 방향","방범","37.53508484624056","126.85115139832864","1","2021-01-29"
"강서구","C261023_화곡2동 163-7(고정2) 화곡터널입구 교차로 방향","방범","37.53508484624056","126.85115139832864","1","2021-01-29"
"강서구","C261023_화곡2동 163-7(고정3) 동심어린이집 방향","방범","37.53508484624056","126.85115139832864","1","2021-01-29"
"강서구","C261023_화곡2동 163-7(고정4) 대은교회 신정초등학교 방향","방범","37.53508484624056","126.85115139832864","1","2021-01-29"
"강서구","C301018[경찰방범]_화곡8동 339-19","방범","37.535088","126.84681","1","2021-01-29"
"강서구","C251031_화곡1동 370-109","방범","37.53510772294869","126.83817127991173","1","2021-01-29"
"강서구","C251114_화곡1동 372-24(고정1)","방범","37.53512259687612","126.83644239706268","1","2021-01-29"
"강서구","C251047(A9020)_화곡동 362-169 화곡시장(보조2) 가로공원로80길 71방향","방범","37.5351933793795","126.83983467787371","1","2021-01-29"
"강서구","C251047(A9020)_화곡동 362-169 화곡시장","방범","37.535206","126.83982","1","2021-01-29"
"강서구","C251047(A9020)_화곡동 362-169 화곡시장(보조1) 화원중학교방향","방범","37.535206","126.83982","1","2021-01-29"
"강서구","C251064_화곡1동 366-7(고정1) 가로공원로80가길 66주신교회방향","방범","37.535256932512745","126.84112726954537","1","2021-01-29"
"강서구","C261010(A3001)_화곡2동 459-22","방범","37.53526","126.85424","1","2021-01-29"
"강서구","C261010(A3001)_화곡2동 459-22(보조1) 골말 어린이공원 방향","방범","37.53526","126.85424","1","2021-01-29"
"강서구","C301047_화곡8동 332-36(고정1) - 아이린 어린이집 방향","방범","37.53527088957185","126.84715684488081","1","2021-01-29"
"강서구","C251027(A3041)_화곡1동 352-48","방범","37.535324","126.84144","1","2021-01-29"
"강서구","C281052_화곡4동 504-16(고정1)","방범","37.535340207967124","126.8616303490469","1","2021-01-29"
"강서구","C301047_화곡8동 332-36(고정2) - 예솔 어린이집 방향","방범","37.53535241349495","126.84722970530353","1","2021-01-29"
"강서구","C281055_화곡4동 814-15(고정2)","방범","37.5353751","126.859487","1","2021-01-29"
"강서구","C281055_화곡4동 814-15(고정3)","방범","37.5353751","126.859487","1","2021-01-29"
"강서구","C281055_화곡4동 814-15(고정1)","방범","37.53537514786599","126.85948734311844","1","2021-01-29"
"강서구","C281055_화곡4동 814-15(고정4)","방범","37.535380110204166","126.85965315796703","1","2021-01-29"
"강서구","C301023_화곡8동 337-7","방범","37.535424703057345","126.84576926695483","1","2021-01-29"
"강서구","C301015(A4030)_화곡8동 155-18","방범","37.535496","126.84995","1","2021-01-29"
"강서구","C301015(A4030)_화곡8동 155-18(보조1) 강서로 18길 방향","방범","37.535496","126.84995","1","2021-01-29"
"강서구","C301015(A4030)_화곡8동 155-18(보조2) 강서로 18바길 28 방향","방범","37.535496","126.84995","1","2021-01-29"
"강서구","C251036(A4015)_화곡1동 372-55","방범","37.535526","126.835594","1","2021-01-29"
"강서구","C251036(A4015)_화곡1동 372-55(보조1) 행복나무어린이집방향","방범","37.535526","126.835594","1","2021-01-29"
"강서구","C301031_화곡8동 407-2(고정1) 탑건 진선미 아파트 방향","방범","37.53554601334036","126.84529565296596","1","2021-01-29"
"강서구","C301031_화곡8동 407-2(고정2) 초록마을로 37길 26 유니크빌 방향","방범","37.53554601334036","126.84529565296596","1","2021-01-29"
"강서구","C281007(A1103)_화곡4동 825-1","방범","37.5355588","126.858722","1","2021-01-29"
"강서구","C281007(A1103)_화곡4동 825-1(보조1) 신진하이츠 (등촌로 13다길 22-12)방향","방범","37.5355588","126.858722","1","2021-01-29"
"강서구","C281025_화곡4동 470-10(고정2) 명지아파트 능골공원 방향","방범","37.53556668779896","126.8568490040404","1","2021-01-29"
"강서구","C281025_화곡4동 470-10(고정1) 진흥아파트 방향","방범","37.53558022277388","126.85685171746571","1","2021-01-29"
"강서구","C281028_화곡4동 773-1(고정2) 등촌로13길 24 벧엘순복음 교회 방향","방범","37.5355866479409","126.86302600090471","1","2021-01-29"
"강서구","C301004_화곡8동 332-6","방범","37.535595","126.8479","1","2021-01-29"
"강서구","C301004_화곡8동 332-6(보조1) 동남빌라 (초록마을로 149-19)방향","방범","37.535595","126.8479","1","2021-01-29"
"강서구","C251098_화곡1동 351-56(고정2) - 중앙화곡하이츠아파트 방향","방범","37.5355966","126.84234","1","2021-01-29"
"강서구","C251098_화곡1동 351-56(고정1) - 명신타운8차 방향","방범","37.53559660125612","126.84234004576392","1","2021-01-29"
"강서구","C281028_화곡4동 773-1(고정1) 등촌로 방향","방범","37.535597929520655","126.86302873461514","1","2021-01-29"
"강서구","S262003(A6021)_화곡2동 458-28 (우일유치원)","방범","37.53560858600121","126.85461603487364","1","2021-01-29"
"강서구","C281054_화곡4동 813-2(고정2)","방범","37.5356289","126.860842","1","2021-01-29"
"강서구","C281054_화곡4동 813-2(고정3)","방범","37.5356289","126.860842","1","2021-01-29"
"강서구","C281054_화곡4동 813-2(고정1)","방범","37.535628956048306","126.86084288163764","1","2021-01-29"
"강서구","C251014(A2040)_화곡1동 369-11","방범","37.535640687409405","126.84039685525275","1","2021-01-29"
"강서구","C251058_화곡1동 351-43","방범","37.535651602519806","126.84320926336086","1","2021-01-29"
"강서구","C251058_화곡1동 351-43(보조1) 강서로17나길 64방향","방범","37.535651602519806","126.84320926336086","1","2021-01-29"
"강서구","C281023_화곡4동 814-18(고정1) 광명하이츠 18차 (등촌로13다길 22-8)방향","방범","37.53571736757791","126.85969719175671","1","2021-01-29"
"강서구","C281023_화곡4동 814-18(고정2) 한강 베스트빌 (등촌로13다길 8-8)방향","방범","37.53571736757791","126.85969719175671","1","2021-01-29"
"강서구","C261001_화곡2동 160-18","방범","37.53581940143316","126.8527862464837","1","2021-01-29"
"강서구","C251003(A1075)_화곡1동 370-13(고정1) 월정로32길 63방향","방범","37.53582","126.83899","1","2021-01-29"
"강서구","C251003(A1075)_화곡1동 370-13(고정2)덕성사방향","방범","37.53582","126.83899","1","2021-01-29"
"강서구","C281019_화곡4동 470-13","방범","37.535825870359346","126.8572712297739","1","2021-01-29"
"강서구","C281019_화곡4동 470-13(보조1) 명지 아파트 방향","방범","37.535825870359346","126.8572712297739","1","2021-01-29"
"강서구","C281019_화곡4동 470-13(보조2) 종달새 공원 방향","방범","37.535825870359346","126.8572712297739","1","2021-01-29"
"강서구","C301012(A3017)_화곡8동 396-34","방범","37.53582938784385","126.84886422750406","1","2021-01-29"
"강서구","C251066_화곡1동 367-95(고정1) 화원중학교방향","방범","37.535840205422524","126.841468773044","1","2021-01-29"
"강서구","C251066_화곡1동 367-95(고정2) 화곡대림아파트방향","방범","37.535840205422524","126.841468773044","1","2021-01-29"
"강서구","C251066_화곡1동 367-95(고정3) 가로공원로86길 15방향","방범","37.535840205422524","126.841468773044","1","2021-01-29"
"강서구","C301012(A3017)_화곡8동 396-34(보조1) 안골 어린이공원 방향","방범","37.535843","126.84886","1","2021-01-29"
"강서구","C301012(A3017)_화곡8동 396-34(보조2) 강서로 18라길 22-3 빛나 어린이집 방향","방범","37.535843","126.84886","1","2021-01-29"
"강서구","C301035_화곡8동 404-21(고정4) 초록마을로 157-4 엘지타운6차 방향","방범","37.5358549","126.847364","1","2021-01-29"
"강서구","C301035_화곡8동 404-21(고정3) 초록마을로 157-20 경원그린빌라 방향","방범","37.535854908125415","126.84736427635815","1","2021-01-29"
"강서구","C301032_화곡8동 330-18(고정1) 초록마을로 149-19 동남빌라 방향","방범","37.53588007878308","126.84824974643392","1","2021-01-29"
"강서구","C301032_화곡8동 330-18(고정2) 초록마을로 149-10 성진파크빌 방향","방범","37.53588007878308","126.84824974643392","1","2021-01-29"
"강서구","C261041_화곡2동 459-13(고정2)","방범","37.5358879","126.85374","1","2021-01-29"
"강서구","C261041_화곡2동 459-13(고정3)","방범","37.5358879","126.85374","1","2021-01-29"
"강서구","C261041_화곡2동 459-13(고정1)","방범","37.535887970653086","126.85374001222168","1","2021-01-29"
"강서구","C251002(A1074)_화곡1동 351-1","방범","37.53589574437906","126.84213467391342","1","2021-01-29"
"강서구","C251002(A1074)_화곡1동351-1(보조1) 화원중학교방향","방범","37.535915","126.84214","1","2021-01-29"
"강서구","C251105_화곡1동 359-120(고정1) - 대한빌라 방향","방범","37.53593541763376","126.84171008629096","1","2021-01-29"
"강서구","C281049_화곡4동 504-23(고정2) - 우만빌라트 방향","방범","37.5359932","126.861545","1","2021-01-29"
"강서구","C281049_화곡4동 504-23(고정1) - 태양약국 방향","방범","37.53599327204544","126.8615454465512","1","2021-01-29"
"강서구","C281008(A1408)_화곡4동 816-4","방범","37.53611","126.85984","1","2021-01-29"
"강서구","C281008(A1408)_화곡4동 816-4(보조1) 이레팰리스 빌라 (등촌로13다길 8-4)방향","방범","37.53611","126.85984","1","2021-01-29"
"강서구","C301044_화곡8동 333-2(고정1) 강서로 18다길 33 예솔어린이집 방향","방범","37.53611307080905","126.84678052565795","1","2021-01-29"
"강서구","G164003(G9012)_등촌2동 567-1 (그린파킹)","방범","37.536125","126.862045","1","2021-01-29"
"강서구","C251030(A3044)_ 화곡1동 370-63","방범","37.536175","126.83926","1","2021-01-29"
"강서구","C251030(A3044)_화곡1동 370-63(보조1)월정초등학교방향","방범","37.536175","126.83926","1","2021-01-29"
"강서구","C161013(A6041)_등촌2동 567-5","방범","37.53619","126.86265","1","2021-01-29"
"강서구","C161013(A6041)_등촌2동 567-5(보조1) (6시 숲사랑어린이집)","방범","37.53619","126.86265","1","2021-01-29"
"강서구","C251015(A2041)_화곡1동 372-69","방범","37.536205","126.83629","1","2021-01-29"
"강서구","C251052_화곡1동 371-27","방범","37.536232","126.838286","1","2021-01-29"
"강서구","C251052_화곡1동 371-27(보조1) 가로공원로 200-17방향","방범","37.536232","126.838286","1","2021-01-29"
"강서구","C281003(A1099)_화곡4동 504-51","방범","37.536232","126.86075","1","2021-01-29"
"강서구","C261026_화곡2동 160-1(고정1) 태경빌라 (곰달래로35길 123) 방향","방범","37.53625294197966","126.85294945139995","1","2021-01-29"
"강서구","C281002(A1098)_화곡4동 469-1","방범","37.536280943805174","126.85559780379427","1","2021-01-29"
"강서구","C301035_화곡8동 404-21(고정1) 우리약국방향","방범","37.53628493646959","126.84689079937521","1","2021-01-29"
"강서구","C301035_화곡8동 404-21(고정2) 샛별어린이집방향","방범","37.53629160233992","126.84687376307339","1","2021-01-29"
"강서구","C251111_화곡1동 369-31(고정2)","방범","37.5363275","126.839519","1","2021-01-29"
"강서구","C251111_화곡1동 369-31(고정1)","방범","37.53632759562325","126.83951977876546","1","2021-01-29"
"강서구","C251110_화곡1동 372-38(고정2)","방범","37.5363279","126.836689","1","2021-01-29"
"강서구","C251110_화곡1동 372-38(고정1)","방범","37.53632796965467","126.83668954056682","1","2021-01-29"
"강서구","C281050_화곡4동 478-9(고정4) - 현대하이츠 빌라 방향","방범","37.5363524","126.858237","1","2021-01-29"
"강서구","C281050_화곡4동 478-9(고정3) - 아이숲 어린이집 방향","방범","37.53635248541955","126.85823750655928","1","2021-01-29"
"강서구","C301036_화곡8동 153-20(고정1) 안골 어린이공원 방향","방범","37.53635269369263","126.85018680507248","1","2021-01-29"
"강서구","C281050_화곡4동 478-9(고정1) - 뉴타운맨션 방향","방범","37.5363555","126.857963","1","2021-01-29"
"강서구","C281050_화곡4동 478-9(고정2) - 화곡3차보람쉬움 아파트 방향","방범","37.53635551469444","126.85796373673959","1","2021-01-29"
"강서구","C251109_화곡1동 367-110(고정2)","방범","37.5363678","126.84116","1","2021-01-29"
"강서구","C251109_화곡1동 367-110(고정1)","방범","37.53636785281846","126.84116016484408","1","2021-01-29"
"강서구","C281026_화곡4동 504-12(고정2) 등촌로13나길 18 방향","방범","37.53638158268803","126.86168079115205","1","2021-01-29"
"강서구","C281026_화곡4동 504-12(고정1) 불교 용천사 봉제산 방향","방범","37.53638610450818","126.86168358230749","1","2021-01-29"
"강서구","C161033_등촌2동 568-28(고정2)","방범","37.5364505","126.862356","1","2021-01-29"
"강서구","C161033_등촌2동 568-28(고정1)","방범","37.53645059737268","126.86235694926927","1","2021-01-29"
"강서구","C301042_화곡8동 407-5(고정2) 까치산 방향","방범","37.53652818687568","126.84564926792173","1","2021-01-29"
"강서구","C301042_화곡8동 407-5(고정1) 화곡 미성아파트 정문 방향","방범","37.536529313503365","126.84564925807697","1","2021-01-29"
"강서구","C251063_화곡1동 371-17(고정1) 가로공원로방향","방범","37.5365320324427","126.83865420965473","1","2021-01-29"
"강서구","C281040_화곡4동 504-155(고정1) 등촌로 13나길 39 예인아트빌 방향","방범","37.53654702707474","126.86102288911581","1","2021-01-29"
"강서구","C301034_화곡8동 152-16(고정3) 강서로 18바길 20 황제빌리지 방향","방범","37.536559778894066","126.84932760753972","1","2021-01-29"
"강서구","C301034_화곡8동 152-16(고정1) 강서로 18마길 34-2 엘지타운7차 방향","방범","37.5365755361019","126.84932464091803","1","2021-01-29"
"강서구","C301034_화곡8동 152-16(고정2) 초록마을로 138-1 금성주택 방향","방범","37.53657558287519","126.8493331296273","1","2021-01-29"
"강서구","C261033_화곡2동 167-1(고정2) 안골어린이공원 방향","방범","37.5365908","126.851776","1","2021-01-29"
"강서구","C261033_화곡2동 167-1(고정3) 태청그린빌라(곰달래로35길 153) 방향","방범","37.5365908","126.851776","1","2021-01-29"
"강서구","C261033_화곡2동 167-1(고정1) 산장하이츠 빌라 (곰달래로35길 135) 방향","방범","37.536590803278","126.85177687676055","1","2021-01-29"
"강서구","C251107_화곡1동 371-51(고정2) - 쌍용맨션 방향","방범","37.5367239","126.837651","1","2021-01-29"
"강서구","C251107_화곡1동 371-51(고정3) - 우성빌라 방향","방범","37.5367239","126.837651","1","2021-01-29"
"강서구","C251107_화곡1동 371-51(고정1) - 가로공원로 대로 방향","방범","37.536723931247195","126.83765101070757","1","2021-01-29"
"강서구","C301001_화곡8동 151-14","방범","37.536743","126.850494","1","2021-01-29"
"강서구","C301001_화곡8동 151-14(보조1) 강서로 18아길 25-8 극동빌라 방향","방범","37.536743","126.850494","1","2021-01-29"
"강서구","C301022_화곡8동 408-30(고정1) 탑건 진선미 아파트 방향","방범","37.53677","126.84634","1","2021-01-29"
"강서구","C301022_화곡8동 408-30(고정2) 초록마을로 162-19 승진주택 방향","방범","37.53677","126.84634","1","2021-01-29"
"강서구","C251050_화곡1동 367-90 화원중정문","방범","37.53679","126.84161","1","2021-01-29"
"강서구","C251050_화곡1동367-90 화원중정문(보조1) 가로공원로86길 15방향","방범","37.53679","126.84161","1","2021-01-29"
"강서구","C281001_화곡4동 473-1(능골어린이공원)","방범","37.53679538182049","126.85572071399444","1","2021-01-29"
"강서구","C301025_화곡8동 409-183","방범","37.53683239905576","126.8472793548997","1","2021-01-29"
"강서구","C251078_화곡1동 368-52(고정1) 월정로 32길 68 화곡7-1 공영주차장 방향","방범","37.5368806","126.839139","1","2021-01-29"
"강서구","C251078_화곡1동 368-52(고정2) 가로공원로 대로 방향","방범","37.536880639251585","126.83913925672628","1","2021-01-29"
"강서구","C281017_화곡4동 479-6 - 카메라 1","방범","37.53689","126.858894","1","2021-01-29"
"강서구","C281017_화곡4동 479-6(보조1) - 선경빌라 (등촌로13바길 9-17) 방향","방범","37.53689","126.858894","1","2021-01-29"
"강서구","C281017_화곡4동 479-6(보조2) - 한광고등학교 방향","방범","37.53689","126.858894","1","2021-01-29"
"강서구","G164005(G9014)_등촌2동 572-1 (그린파킹)","방범","37.536938","126.86197","1","2021-01-29"
"강서구","C301007_화곡8동 408-19","방범","37.53697160775022","126.84556050157012","1","2021-01-29"
"강서구","C301007_화곡8동 408-19(보조1) 보광사 방향","방범","37.536987","126.84555","1","2021-01-29"
"강서구","C251082_화곡1동 367-153(고정1) 가로공원로 88길 38 신세계맨션 방향","방범","37.53704858476376","126.84116809991444","1","2021-01-29"
"강서구","C261016_화곡2동 461-4","방범","37.537052","126.85392","1","2021-01-29"
"강서구","C261016_화곡2동 461-4(보조1) 신정여중 신정여상 방향","방범","37.537052","126.85392","1","2021-01-29"
"강서구","C251082_화곡1동 367-153(고정2) 진민 그린 아파트 방향","방범","37.53706872195793","126.84114245523811","1","2021-01-29"
"강서구","C281051_화곡4동 504-37(고정1)","방범","37.53710605768333","126.86028424195274","1","2021-01-29"
"강서구","C251013(A2039)_화곡1동 367-6","방범","37.53727","126.84062","1","2021-01-29"
"강서구","C311049_화곡본동 105-464(고정1) 까치산 방향","방범","37.537298309125106","126.84372680980367","1","2021-01-29"
"강서구","C311049_화곡본동 105-464(고정2) 까치산로 2길 75 방향","방범","37.537298309125106","126.84372680980367","1","2021-01-29"
"강서구","C311049_화곡본동 105-464(고정3) 까치산근린공원 방향","방범","37.537298309125106","126.84372680980367","1","2021-01-29"
"강서구","C281040_화곡4동 504-111(고정2) 등촌로 13마길 11 방향","방범","37.53735654739035","126.86071036986307","1","2021-01-29"
"강서구","C281040_화곡4동 504-111(고정3) 정우아파트 방향","방범","37.537379018732615","126.86069885906813","1","2021-01-29"
"강서구","C301024_화곡8동 410-7(보조1) 곰달래로 35길 163 한빛타운 방향","방범","37.5373884","126.850046","1","2021-01-29"
"강서구","C301024_화곡8동 410-7","방범","37.53738846790996","126.85004623409261","1","2021-01-29"
"강서구","C301024_화곡8동 410-7(보조2) 초록마을로 28길 12 화이트빌 방향","방범","37.53738846790996","126.85004623409261","1","2021-01-29"
"강서구","P313003_까치산근린공원1","방범","37.53739703634776","126.84466541673502","1","2021-01-29"
"강서구","F257001_[체납]가로공원 공영주차장","방범","37.53745","126.83912","1","2021-01-29"
"강서구","C251060_화곡1동 377-26(고정1) 가로공원로 183-14방향","방범","37.53757876942022","126.83605292187758","1","2021-01-29"
"강서구","C251060_화곡1동 377-26(고정2) 가로공원로 183-48방향","방범","37.53757876942022","126.83605292187758","1","2021-01-29"
"강서구","C161010(A2016)_등촌2동 574-6","방범","37.53758560932602","126.86139887207353","1","2021-01-29"
"강서구","P313005_까치산근린공원3","방범","37.537586","126.84299","1","2021-01-29"
"강서구","P313014 - 화곡본동105-561(까치산근린공원)(보조2)","방범","37.53766162296573","126.84402357865427","1","2021-01-29"
"강서구","P313014 - 화곡본동105-561(까치산근린공원)","방범","37.53766384478259","126.84401789969928","1","2021-01-29"
"강서구","P313014 - 화곡본동105-561(까치산근린공원)(보조1)","방범","37.53767062026388","126.84402067008925","1","2021-01-29"
"강서구","C301009(A1131)_화곡8동 410-199","방범","37.53769435098786","126.8487150126092","1","2021-01-29"
"강서구","C281053_화곡4동 475-11(고정2)","방범","37.5377397","126.856572","1","2021-01-29"
"강서구","C281053_화곡4동 475-11(고정1)","방범","37.53773976532951","126.8565725205429","1","2021-01-29"
"강서구","C251079_화곡1동 1088-2(고정1) 화곡 보람 더하임 아파트 방향","방범","37.53778746281436","126.83509744602236","1","2021-01-29"
"강서구","C251079_화곡1동 1088-2(고정2) 가로공원로 대로 방향","방범","37.53779645988216","126.83509453638295","1","2021-01-29"
"강서구","C281040_화곡4동 504-189(고정4) 등촌로 13마길 18 두성빌라 방향","방범","37.5377968841287","126.86005010781726","1","2021-01-29"
"강서구","C281040_화곡4동 504-189(고정5) 매봉산 방향","방범","37.53781265695774","126.86004997301772","1","2021-01-29"
"강서구","G164004(G9013)_등촌2동 569-1 (그린파킹)","방범","37.53784","126.86235","1","2021-01-29"
"강서구","C251112_화곡1동 379-32(고정1)","방범","37.537859953447864","126.83884103936195","1","2021-01-29"
"강서구","C281013(A4024)_화곡4동 504-182","방범","37.53795","126.85903","1","2021-01-29"
"강서구","C161009(A2015)_등촌2동 565-20","방범","37.5379560447778","126.862809019778","1","2021-01-29"
"강서구","C251034_화곡1동 1088-6","방범","37.53796","126.83533","1","2021-01-29"
"강서구","C251088_화곡1동 379-32(고정1) 근상프리즘 아트빌 방향","방범","37.53796665832819","126.83811520441635","1","2021-01-29"
"강서구","C251087_화곡1동 379-50(고정3) 강서로 대로 방향","방범","37.537989315070156","126.83693216575105","1","2021-01-29"
"강서구","C251087_화곡1동 379-50(고정2) 화곡로 대로 방향","방범","37.538002786909026","126.83692355718406","1","2021-01-29"
"강서구","C251087_화곡1동 379-50(고정1) 가로공원로 대로 방향","방범","37.53801072889753","126.83693339100753","1","2021-01-29"
"강서구","C301008(A1130)_화곡8동 409-48","방범","37.53812309081568","126.84637672867963","1","2021-01-29"
"강서구","C281048_화곡4동 504-70(고정2) - 국제아트빌 방향","방범","37.5381292","126.859326","1","2021-01-29"
"강서구","C281048_화곡4동 504-70(고정1) - 대산그린빌라 방향","방범","37.538129236879925","126.85932650583115","1","2021-01-29"
"강서구","C301008(A1130)_화곡8동409-48(보조1) 대무 어린이공원 방향","방범","37.538136","126.84638","1","2021-01-29"
"강서구","C311025(A4013)_화곡본동 105-430","방범","37.53815","126.84333","1","2021-01-29"
"강서구","C311025(A4013)_화곡본동 105-430(보조1) 까치산로 4라길 51 까치산 근린공원 방향","방범","37.53815","126.84333","1","2021-01-29"
"강서구","C301014(A4029)_화곡8동 409-249","방범","37.53816","126.84738","1","2021-01-29"
"강서구","C281031_화곡4동 504-68(고정2) 봉제산 방향","방범","37.538274328275776","126.85958477471786","1","2021-01-29"
"강서구","C281031_화곡4동 504-68(고정1) 성경빌라트(등촌로13마길 17-7)방향","방범","37.538292339016984","126.85958179090623","1","2021-01-29"
"강서구","C301043_화곡8동 410-261(고정2) 초록마을로 28길 15 다우빌라 방향","방범","37.53832580376733","126.85044417023641","1","2021-01-29"
"강서구","C251016(A2042)_화곡1동 379-6","방범","37.538326","126.83906","1","2021-01-29"
"강서구","C301043_화곡8동 410-261(고정1) 태창아파트 방향","방범","37.53833030249849","126.8504427163251","1","2021-01-29"
"강서구","C311057_화곡본동 105-428(고정2) 좌측은 강서로 대로 방향 우측은 화곡본동성당 방향","방범","37.53850500900968","126.84332572450543","1","2021-01-29"
"강서구","C251004(A2030)_화곡1동 1087","방범","37.538513","126.83473","1","2021-01-29"
"강서구","C251004(A2030)_화곡1동 1087_럭키마트 옆(보조1) 강서중앙시장재건축방향","방범","37.538513","126.83473","1","2021-01-29"
"강서구","C311057_화곡본동 105-428(고정1) 강서로24길 34 미문빌라 방향","방범","37.5385185757376","126.8433340948599","1","2021-01-29"
"강서구","C301027(A3022)_화곡8동 410-206","방범","37.53853","126.84928","1","2021-01-29"
"강서구","C301027(A3022)_화곡8동 410-206(보조1) 초록마을로24길 21-4 개구리어린이집 방향","방범","37.53853","126.84928","1","2021-01-29"
"강서구","C311011(A1145)_화곡본동 56-673","방범","37.53857246329751","126.85022413738285","1","2021-01-29"
"강서구","C251065_화곡1동 1086-24(고정1) 초롱공원방향","방범","37.53860041453161","126.83620799021355","1","2021-01-29"
"강서구","C251065_화곡1동 1086-24(고정2) 화곡로20길 37방향","방범","37.53860041453161","126.83620799021355","1","2021-01-29"
"강서구","C251065_화곡1동 1086-24(고정3) 강서중앙시장재건축방향","방범","37.53860041453161","126.83620799021355","1","2021-01-29"
"강서구","C251054_화곡1동 400-41","방범","37.538633902996935","126.84178802247","1","2021-01-29"
"강서구","C311001(A1134)_화곡본동 102-143","방범","37.53868","126.84508","1","2021-01-29"
"강서구","C311001(A1134)_화곡본동 102-143(보조1) 까치산 근린공원 방향","방범","37.53868","126.84508","1","2021-01-29"
"강서구","C251068_화곡1동 400-75 하나하이츠 옆(고정1) 가로공원로방향","방범","37.538703788672635","126.8397754314226","1","2021-01-29"
"강서구","S282002(A3029)_화곡4동 488-2(한광고등학교)","방범","37.53887191697908","126.85764780977126","1","2021-01-29"
"강서구","C311083_화곡본동 56-393(고정2)","방범","37.5388857","126.850059","1","2021-01-29"
"강서구","C311083_화곡본동 56-393(고정3)","방범","37.5388857","126.850059","1","2021-01-29"
"강서구","C311083_화곡본동 56-393(고정1)","방범","37.538885798508076","126.85005944218251","1","2021-01-29"
"강서구","C251017(A2043)_화곡1동 400-72","방범","37.538933","126.84036","1","2021-01-29"
"강서구","C251032(A3046)_화곡1동 381-12","방범","37.538937","126.83923","1","2021-01-29"
"강서구","C251061_화곡1동 1085-14(고정1) 신월초등학교방향","방범","37.53895578808804","126.83809797158361","1","2021-01-29"
"강서구","C251061_화곡1동 1085-14(고정2) 화곡로20길 33-29방향","방범","37.53895578808804","126.83809797158361","1","2021-01-29"
"강서구","C251061_화곡1동 1085-14(고정3) 강서로31길 84방향","방범","37.53895578808804","126.83809797158361","1","2021-01-29"
"강서구","C251083_화곡1동 1085-25(고정1) 신월초교 방향","방범","37.538994376945595","126.83855039766807","1","2021-01-29"
"강서구","C251083_화곡1동 1085-25(고정2) 화곡로 24길 40-25 방향","방범","37.53899442449595","126.83855888663322","1","2021-01-29"
"강서구","C311022_화곡본동 56-703 - 카메라 1","방범","37.539017","126.85162","1","2021-01-29"
"강서구","C251093_화곡1동 400-28(고정1) 가로공원로 89길 11 방향","방범","37.53903820278601","126.84155383997401","1","2021-01-29"
"강서구","C311046_화곡본동 56-151(고정1) 초록마을로28길 50 화성빌라5차 방향","방범","37.53906507970917","126.84883892042564","1","2021-01-29"
"강서구","C311046_화곡본동 56-151(고정2) 초록마을로22길 58 성원파크빌 방향","방범","37.53906507970917","126.84883892042564","1","2021-01-29"
"강서구","C311046_화곡본동 56-151(고정3) 초록마을로22길 36 방향","방범","37.53906507970917","126.84883892042564","1","2021-01-29"
"강서구","C311009_화곡본동 56-433 (초록마을로 22길 69 방향)","방범","37.53906731155017","126.84801825922652","1","2021-01-29"
"강서구","C311009_화곡본동 56-433(보조1) 화곡본-1 공영주차장 방향","방범","37.539085","126.84802","1","2021-01-29"
"강서구","C281039_화곡4동 488-47(고정2) 신영아파트 방향","방범","37.53916369042879","126.85820754277971","1","2021-01-29"
"강서구","C281039_화곡4동 488-47(고정1) 한광고등학교 방향","방범","37.539170434829366","126.85820465516653","1","2021-01-29"
"강서구","C311034_화곡본동 56-654 - 카메라 1","방범","37.539207","126.85089","1","2021-01-29"
"강서구","C311034_화곡본동 56-654(보조1) 초록마을로24길 21-11 방향","방범","37.539207","126.85089","1","2021-01-29"
"강서구","C251039(A4018)_화곡1동 1070-39","방범","37.539253","126.83423","1","2021-01-29"
"강서구","C311059_화곡본동 56-393(고정2) 초록마을로 28길 36 에이스빌라트 방향","방범","37.53930296992509","126.85029986253185","1","2021-01-29"
"강서구","C251096_화곡1동 1078(고정2) - 지혜빌딩 방향","방범","37.5393048","126.839003","1","2021-01-29"
"강서구","C251096_화곡1동 1078(고정1) - 산호맨션 방향","방범","37.5393048500727","126.83900346678658","1","2021-01-29"
"강서구","C311059_화곡본동 56-393(고정1) 초록마을로 24길 28 삼성연립 방향","방범","37.53930746086904","126.8502969937553","1","2021-01-29"
"강서구","C311060_화곡본동 403-17(고정1) 강서로 26길 5-22 대송빌라 방향","방범","37.53932796960786","126.8426025655671","1","2021-01-29"
"강서구","C311002(A1135)_화곡본동 102-66(보조1) 까치산로4길 85-12 고려주택 방향","방범","37.539406","126.846596","1","2021-01-29"
"강서구","C311002(A1135)_화곡본동 102-66","방범","37.53941320541119","126.84659185183287","1","2021-01-29"
"강서구","C251108_화곡1동 1083-1(고정2) - 가로공원로 대로 방향","방범","37.5394422","126.836582","1","2021-01-29"
"강서구","C251108_화곡1동 1083-1(고정3) - 화곡로 대로 방향","방범","37.5394422","126.836582","1","2021-01-29"
"강서구","C251108_화곡1동 1083-1(고정4) - 건형빌라 방향","방범","37.5394422","126.836582","1","2021-01-29"
"강서구","C251108_화곡1동 1083-1(고정1) - 강서뉴타워 방향","방범","37.53944221905418","126.8365827539618","1","2021-01-29"
"강서구","C311003_화곡본동 105-239","방범","37.53945641954371","126.84300893089067","1","2021-01-29"
"강서구","C311003_화곡본동 105-239(보조1) - 까치산로 2길 58 까치산 아파트 방향","방범","37.539474","126.84301","1","2021-01-29"
"강서구","C251006_화곡1동 1083-20 - 카메라 1","방범","37.53952","126.83809","1","2021-01-29"
"강서구","C251033(A3047)_화곡1동 1072-22","방범","37.539547","126.835884","1","2021-01-29"
"강서구","C311038(A3024)_화곡본동 56-501","방범","37.539642","126.85014","1","2021-01-29"
"강서구","C311038_화곡본동 56-501(보조1) 초록마을로22길 33 성은빌라 방향","방범","37.539649130574944","126.85014404850555","1","2021-01-29"
"강서구","C311077_화곡본동 102-224(고정1) - 화곡본동천주교회 방향","방범","37.5398426","126.845485","1","2021-01-29"
"강서구","C311077_화곡본동 102-224(고정2) - 중앙파크맨션 방향","방범","37.5398426","126.845485","1","2021-01-29"
"강서구","C311081_화곡본동 56-638(고정2)","방범","37.5398483","126.847161","1","2021-01-29"
"강서구","C311081_화곡본동 56-638(고정1)","방범","37.539848347446835","126.8471616338979","1","2021-01-29"
"강서구","C251089_화곡1동 662-26(고정2) 화곡 현대주유소 방향","방범","37.53990480899548","126.84098166804097","1","2021-01-29"
"강서구","C251089_화곡1동 662-26(고정1) 강서로 29길 32 태경 아파트 방향","방범","37.539920581759205","126.84098152921443","1","2021-01-29"
"강서구","C311004(A1137)_화곡본동 105-207(보조1) 볏골공원 방향","방범","37.54","126.84458","1","2021-01-29"
"강서구","C311004(A1137)_화곡본동 105-207","방범","37.54000143684678","126.8445775362576","1","2021-01-29"
"강서구","C311058_화곡본동 105-191(고정1) 강서로 26길 35-20 쌍용 빌라트 방향","방범","37.54006448737302","126.84416382822346","1","2021-01-29"
"강서구","C311052_화곡본동 56-108(고정1) 초록마을로22길 13 두산빌라 방향","방범","37.540069539425346","126.85138973328215","1","2021-01-29"
"강서구","C311058_화곡본동 105-191(고정2) 노을공원 방향","방범","37.54007570649113","126.84415524044259","1","2021-01-29"
"강서구","C251005_화곡1동 1078-27","방범","37.54014","126.84057","1","2021-01-29"
"강서구","C311036_화곡본동 102-324","방범","37.54018417916706","126.84705770724021","1","2021-01-29"
"강서구","S312005_화곡본동 57-29(화일초등학교)(신규)","방범","37.540302","126.84852","1","2021-01-29"
"강서구","C311076_화곡본동 105-141(고정1) - 성원빌라 방향","방범","37.5403898","126.842164","1","2021-01-29"
"강서구","C311076_화곡본동 105-141(고정2) - 파랑새빌라트 방향","방범","37.5403898","126.842164","1","2021-01-29"
"강서구","C311035_화곡동 56-23(고정1) 초록마을로 18길 21 밀레니엄 빌라 방향","방범","37.540533766620236","126.84899969742764","1","2021-01-29"
"강서구","C311035_화곡동 56-23(고정2) 화곡본-1 공영주차장 방향","방범","37.540533766620236","126.84899969742764","1","2021-01-29"
"강서구","C271039_화곡3동 1068-22(고정2)","방범","37.5405476","126.835512","1","2021-01-29"
"강서구","C271039_화곡3동 1068-22(고정1)","방범","37.540547683137234","126.83551252135051","1","2021-01-29"
"강서구","C311016_화곡본동 105-99 - 카메라 1","방범","37.54064","126.84297","1","2021-01-29"
"강서구","C311072_화곡본동 98-106(고정2) - 노을공원 방향","방범","37.5406911","126.845594","1","2021-01-29"
"강서구","C311072_화곡본동 98-106(고정1) - 비둘기공원 방향","방범","37.54069110228818","126.84559421029085","1","2021-01-29"
"강서구","C311010(A1144)_화곡본동 56-62","방범","37.5407","126.851","1","2021-01-29"
"강서구","C311078_화곡본동 105-115(고정1) - 볏골공원 방향","방범","37.5407087","126.843331","1","2021-01-29"
"강서구","C311078_화곡본동 105-115(고정2) - 노을공원 방향","방범","37.540708779582424","126.84333104830976","1","2021-01-29"
"강서구","C271016_화곡3동 1044-29(고정1) 화곡역 방향","방범","37.540784","126.834722","1","2021-01-29"
"강서구","C271016_화곡3동 1044-29(고정2) 강서로 33길 103 CU 편의점 방향","방범","37.540784","126.834722","1","2021-01-29"
"강서구","C311072_화곡본동 98-106(고정4) - 강서중앙교회 방향","방범","37.5407857","126.845604","1","2021-01-29"
"강서구","C311072_화곡본동 98-106(고정3) - 볏골공원 방향","방범","37.54078579938324","126.8456044917523","1","2021-01-29"
"강서구","C311037(A3023)_화곡본동 56-260","방범","37.54081","126.85245","1","2021-01-29"
"강서구","C311027[경찰방범]_화곡본동 58-11","방범","37.54088","126.84806","1","2021-01-29"
"강서구","C271022_화곡3동 1044-31(고정1) 화곡로 대로 방향","방범","37.540947727321765","126.83428409357125","1","2021-01-29"
"강서구","C271022_화곡3동 1044-31(고정2) 화곡 3-1 공영주차장 방향","방범","37.540947727321765","126.83428409357125","1","2021-01-29"
"강서구","C311008_화곡본동 56-209","방범","37.54095690155362","126.84988366909513","1","2021-01-29"
"강서구","C251104_화곡1동 1075(고정1) - 신월초등학교 방향","방범","37.5409734","126.839999","1","2021-01-29"
"강서구","C251104_화곡1동 1075(고정3) - 화곡로 대로 방향 우측은 화곡역 방향","방범","37.5409734","126.839999","1","2021-01-29"
"강서구","C251104_화곡1동 1075(고정2) - 계명아파트 방향","방범","37.540973446933776","126.83999915767302","1","2021-01-29"
"강서구","C311065_화곡본동 100-22(고정2) - 비둘기공원 방향","방범","37.5410072","126.846003","1","2021-01-29"
"강서구","C311065_화곡본동 100-22(고정3) - 삼성로얄빌리지 방향","방범","37.5410072","126.846003","1","2021-01-29"
"강서구","C311065_화곡본동 100-22(고정4) - 노을공원 방향","방범","37.5410072","126.846003","1","2021-01-29"
"강서구","C311065_화곡본동 100-22(고정1) - 카메라 바로아래 주차장 방향","방범","37.54100726470773","126.8460037556608","1","2021-01-29"
"강서구","C311041_화곡본동 56-92(고정3)","방범","37.5410706","126.853776","1","2021-01-29"
"강서구","C311041_화곡본동 56-92(고정1) 좌측-불교 선법사 방향우측-동도하이츠 빌라 방향","방범","37.5410706580875","126.85377659001852","1","2021-01-29"
"강서구","C311041_화곡본동 56-92(고정2) 봉제산 쉼터 방향","방범","37.5410706580875","126.85377659001852","1","2021-01-29"
"강서구","G314001(G9005)_화곡본동 56-225 (그린파킹)","방범","37.54111167693756","126.84949663223085","1","2021-01-29"
"강서구","C271018_화곡3동 1044-6","방범","37.541124052715226","126.83458390745824","1","2021-01-29"
"강서구","C311050_화곡본동 1076-4(고정1) 화곡로 대로 방향","방범","37.541247139320504","126.84166883343194","1","2021-01-29"
"강서구","C311050_화곡본동 1076-4(고정2) 까치산로 방향","방범","37.541247139320504","126.84166883343194","1","2021-01-29"
"강서구","C271010(A1096)_화곡3동 1067-18","방범","37.54127799557168","126.8367134396438","1","2021-01-29"
"강서구","C271010(A1096)_화곡3동 1067-18(보조1) 화곡로 대로 방향","방범","37.54128","126.836716","1","2021-01-29"
"강서구","C271038_화곡3동 1042-11(고정2)","방범","37.541329","126.833595","1","2021-01-29"
"강서구","C271038_화곡3동 1042-11(고정1)","방범","37.54132907472216","126.83359544867736","1","2021-01-29"
"강서구","C311024_화곡본동 98-89 - 카메라 1","방범","37.541428","126.84486","1","2021-01-29"
"강서구","C311024_화곡본동 98-89 보조 1 - 까치산로 4길 30-17 방향","방범","37.541428","126.84486","1","2021-01-29"
"강서구","C271007(A1093)_화곡3동 1045-45","방범","37.541490810165484","126.83528812009351","1","2021-01-29"
"강서구","C271033_화곡3동 1048-36(고정3)","방범","37.541492295828746","126.8373352032598","1","2021-01-29"
"강서구","C311047_화곡본동 56-28(고정1) 초록마을로 81 초록어린이집 방향","방범","37.54152194833377","126.85060321511248","1","2021-01-29"
"강서구","C311047_화곡본동 56-28(고정2) 초록영재어린이집 방향","방범","37.54152194833377","126.85060321511248","1","2021-01-29"
"강서구","C311047_화곡본동 56-28(고정3) 봉제산근린공원 어린이놀이터 방향","방범","37.54152194833377","126.85060321511248","1","2021-01-29"
"강서구","C311047_화곡본동 56-28(고정4) 초록마을로 16길 14 진영꼬마숲 어린이집 방향","방범","37.54152194833377","126.85060321511248","1","2021-01-29"
"강서구","C311026(A5025)_화곡본동 105-46","방범","37.541553","126.84305","1","2021-01-29"
"강서구","C311026(A5025)_화곡본동 105-46(보조1) 까치산로 4가길 8 현대힐타운 방향","방범","37.541553","126.84305","1","2021-01-29"
"강서구","C311021(A4009)_화곡본동 55-70","방범","37.541595","126.84833","1","2021-01-29"
"강서구","I276002_화곡3동 1065-31 (화곡역 7번 출구)","방범","37.541634","126.83977","1","2021-01-29"
"강서구","C311043_화곡본동 99-15(고정1) 좌측은 까치산로 6길 22 방향 우측은 까치산로 6길 29-8 성진빌라 방향","방범","37.5416528034019","126.84532715222205","1","2021-01-29"
"강서구","C311043_화곡본동 99-15(고정2) 초록마을로 6길 45 방향","방범","37.5416528034019","126.84532715222205","1","2021-01-29"
"강서구","C311013(A1148)_화곡본동 61-97","방범","37.5416571815301","126.8469316654454","1","2021-01-29"
"강서구","C271030_화곡3동 1049-47(고정4) 다원빌라 화곡로25길26 방향","방범","37.54166134660173","126.83816885470291","1","2021-01-29"
"강서구","C271030_화곡3동 1049-47(고정3) 화곡로 대로 방향","방범","37.54166246529657","126.83816742986596","1","2021-01-29"
"강서구","C311013(A1148)_화곡본동 61-97(보조1) 화곡초교 방향","방범","37.541668","126.846924","1","2021-01-29"
"강서구","C271030_화곡3동 1049-47(고정1) 화곡역 방향","방범","37.54166924090693","126.83817019986696","1","2021-01-29"
"강서구","C271030_화곡3동 1049-47(고정2)수명 어린이공원 방향","방범","37.54167146243623","126.83816452043675","1","2021-01-29"
"강서구","C311053_화곡본동 56-607(고정1) 초록마을로14길 21 진우하이빌 방향","방범","37.54167486983054","126.8501377854272","1","2021-01-29"
"강서구","C311029(A8023)_화곡본동 산41-16","방범","37.54173","126.851494","1","2021-01-29"
"강서구","C271033_화곡3동 1048-36(고정2)","방범","37.5417561","126.837293","1","2021-01-29"
"강서구","C271033_화곡3동 1048-36(고정1)","방범","37.54175613437631","126.8372935481913","1","2021-01-29"
"강서구","C311020_화곡본동 59-36(고정2)","방범","37.5417911","126.847524","1","2021-01-29"
"강서구","C311020_화곡본동 59-36(고정1) 비둘기공원 방향","방범","37.54179115534844","126.84752477625612","1","2021-01-29"
"강서구","F317001_[체납]화곡본동 98-99 볏골공원 공영주차장","방범","37.541805","126.84432","1","2021-01-29"
"강서구","C271006(A1092)_화곡3동 1042-16","방범","37.54186085589006","126.83377649651406","1","2021-01-29"
"강서구","C271006(A1092)_화곡3동 1042-16(보조1) 화곡로13나길 10-16 방향","방범","37.541866","126.83378","1","2021-01-29"
"강서구","C311032_화곡본동 105-366","방범","37.542006361921516","126.84244887235695","1","2021-01-29"
"강서구","C311032_화곡본동 105-366(보조1) 화곡로 194-42 임마누엘 교회 방향","방범","37.542006361921516","126.84244887235695","1","2021-01-29"
"강서구","C311032_화곡본동 105-366(보조2) 화곡로 대로 방향","방범","37.542006361921516","126.84244887235695","1","2021-01-29"
"강서구","C311073_화곡본동 56-10(고정1) - 봉제산 방향","방범","37.542020405383646","126.85054121315831","1","2021-01-29"
"강서구","C271011(A4021)_화곡3동 1050-33 (구1065-19)","방범","37.542034","126.83927","1","2021-01-29"
"강서구","C271011(A4021)_화곡3동 1065-19(보조1) 화곡3동 주민센터 방향","방범","37.542034","126.83927","1","2021-01-29"
"강서구","C271008(A1094)_화곡3동 1047-16","방범","37.54208085787109","126.83602997803096","1","2021-01-29"
"강서구","C271008(A1094)_화곡3동 1047(보조1) 동성베스트빌(화곡로 19길 11) 방향","방범","37.542084","126.83604","1","2021-01-29"
"강서구","C311012_화곡본동 61-51","방범","37.542122363259274","126.8458890291327","1","2021-01-29"
"강서구","C311045_화곡본동 55-93(고정1) 초록마을로 57 방향","방범","37.54215870625616","126.84961288110992","1","2021-01-29"
"강서구","C311045_화곡본동 55-93(고정2) 초록마을로 66 방향","방범","37.54215870625616","126.84961288110992","1","2021-01-29"
"강서구","C311068_화곡본동 50-120(고정3) - 쉐라톤빌리지 방향","방범","37.542238","126.849053","1","2021-01-29"
"강서구","C311068_화곡본동 50-120(고정2) - 좌측은 주얼리하우스 방향 우측은 광성교회 방향","방범","37.54223806153138","126.84905309188741","1","2021-01-29"
"강서구","C241033_우장산동 1062-20(고정1)영능교회방","방범","37.54230080687285","126.84064326359683","1","2021-01-29"
"강서구","C311068_화곡본동 50-120(고정1) - 화곡본 어린이집 방향","방범","37.54230873911852","126.84920246323531","1","2021-01-29"
"강서구","C271009(A1095)_화곡3동 1050-12(보조1) 화곡3동 주민센터 방향","방범","37.542362","126.83803","1","2021-01-29"
"강서구","C271009(A1095)_화곡3동 1050-12","방범","37.542367050432624","126.83803951469184","1","2021-01-29"
"강서구","C311074_화곡본동 98-60(고정3) - 현대힐타운 방향","방범","37.5425011","126.844505","1","2021-01-29"
"강서구","C311074_화곡본동 98-60(고정2) - 화곡초등학교 방향","방범","37.54250117409619","126.84450514313478","1","2021-01-29"
"강서구","C311080_화곡본동 107-6(고정2)","방범","37.5425051","126.842748","1","2021-01-29"
"강서구","C311080_화곡본동 107-6(고정1)","방범","37.54250514352691","126.84274822074879","1","2021-01-29"
"강서구","G274002(G9016)_화곡3동 1046 (그린파킹)","방범","37.542526","126.83485","1","2021-01-29"
"강서구","C311074_화곡본동 98-60(고정4) - 인터시티빌라 방향","방범","37.5425274","126.844371","1","2021-01-29"
"강서구","C311074_화곡본동 98-60(고정1) - 화곡본동시장 방향","방범","37.54252747473983","126.84437190617565","1","2021-01-29"
"강서구","C311084_화곡본동 107-1(고정2)","방범","37.5425609","126.843256","1","2021-01-29"
"강서구","C311084_화곡본동 107-1(고정1)","방범","37.542560940911144","126.84325631905751","1","2021-01-29"
"강서구","C241026_우장산동 1064","방범","37.5426096","126.84032","1","2021-01-29"
"강서구","C241026_우장산동 1064(보조1)화곡역 2번출구방향","방범","37.5426096","126.84032","1","2021-01-29"
"강서구","C271026_화곡3동 1046-30(고정1) 강서로 35길 57-6 방향","방범","37.542610364390846","126.83562343179171","1","2021-01-29"
"강서구","I316001_화곡본동시장(구도로)","방범","37.54263","126.84385","1","2021-01-29"
"강서구","C271031_화곡3동 1047(고정2) - 승석휠타운 방향","방범","37.5426556","126.8359","1","2021-01-29"
"강서구","C271031_화곡3동 1047(고정3) - 대원연립 방향","방범","37.5426556","126.8359","1","2021-01-29"
"강서구","C271031_화곡3동 1047(고정4) - 화곡하이츠빌라 방향","방범","37.5426556","126.8359","1","2021-01-29"
"강서구","C271031_화곡3동 1047(고정1) - 동원그린빌 방향","방범","37.54265561243699","126.83590097145101","1","2021-01-29"
"강서구","C311007(A1141)_화곡본동 51-40(보조1) 화곡초교 방향","방범","37.54268","126.84806","1","2021-01-29"
"강서구","G274003(G9017)_화곡3동1048-14 (그린파킹)","방범","37.542686","126.8369","1","2021-01-29"
"강서구","C311007(A1141)_화곡본동 51-40","방범","37.54270223333284","126.84806301392348","1","2021-01-29"
"강서구","C271005(A1091)_화곡3동 1049","방범","37.542711811934176","126.83723559463983","1","2021-01-29"
"강서구","C271005(A1091)_화곡3동 1049(보조1) 성우주택 (강서로 33길 45) 방향","방범","37.542713","126.837234","1","2021-01-29"
"강서구","C271020_화곡3동 1051","방범","37.542812732793344","126.83835535718566","1","2021-01-29"
"강서구","C271020_화곡3동 1051(보조1) 대원쇼핑타운(종합시장) 방향","방범","37.542812732793344","126.83835535718566","1","2021-01-29"
"강서구","C271020_화곡3동 1051(보조2) 강서로 대로 방향","방범","37.542812732793344","126.83835535718566","1","2021-01-29"
"강서구","G274001(G9015)_화곡3동 1039-39 (그린파킹)","방범","37.542873","126.8328","1","2021-01-29"
"강서구","G274001(G9015)_화곡3동 1039-39 (그린파킹)(보조1)","방범","37.542873","126.8328","1","2021-01-29"
"강서구","C311019_화곡본동 50-19(고정1) 좌측은 초록마을로7길2방향 우측은 까치산로12길51방향","방범","37.5429107","126.848695","1","2021-01-29"
"강서구","C311019_화곡본동 50-19(고정2) 좌측은 초록마을로9길20방향 우측은 초록마을로9길62-1방향","방범","37.5429107","126.848695","1","2021-01-29"
"강서구","C241055_우장산동(화곡동) 1063-7(고정2)","방범","37.5429214","126.841611","1","2021-01-29"
"강서구","C241055_우장산동(화곡동) 1063-7(고정1)","방범","37.542921475432465","126.8416112181856","1","2021-01-29"
"강서구","C241012(A1108)_우장산동 1061-36","방범","37.54323","126.841324","1","2021-01-29"
"강서구","C241012(A1108)_우장산동 1061-36(보조)화곡로방향","방범","37.54323","126.841324","1","2021-01-29"
"강서구","C311079_화곡본동 51-72(고정2)","방범","37.5432788","126.848481","1","2021-01-29"
"강서구","C311079_화곡본동 51-72(고정1)","방범","37.54327886324404","126.84848134808482","1","2021-01-29"
"강서구","C311055_화복본동 24-283(고정2) 초록마을로6길 1 엘림할인마트 방향","방범","37.54331081926824","126.84727947542124","1","2021-01-29"
"강서구","C311055_화복본동 24-283(고정1) 화곡본동 주민센터 방향","방범","37.54331308816428","126.84728228559922","1","2021-01-29"
"강서구","C311067_화곡본동 98-42(고정2) - 화곡119안전센터 방향","방범","37.5433231","126.844283","1","2021-01-29"
"강서구","C311067_화곡본동 98-42(고정3) - 프리즘빌라 방향","방범","37.5433231","126.844283","1","2021-01-29"
"강서구","C311067_화곡본동 98-42(고정1) - 화곡본동시장 방향","방범","37.54332313836508","126.84428395463823","1","2021-01-29"
"강서구","C271037_화곡3동 1039-17(고정2)","방범","37.5433411","126.834519","1","2021-01-29"
"강서구","C271037_화곡3동 1039-17(고정1)","방범","37.54334112490253","126.83451925229094","1","2021-01-29"
"강서구","C271025_화곡3동 1037-15(고정2) 강서로 37길 28 성준빌라 방향","방범","37.5433438322339","126.8358235098205","1","2021-01-29"
"강서구","C271025_화곡3동 1037-15(고정1) 강서로35길 58 J월드 아파트 방향","방범","37.543352829309924","126.83582060004205","1","2021-01-29"
"강서구","C271023_화곡3동 1036-12(고정2) 화곡로21길 71 스위트드림 아파트 방향","방범","37.54337870291082","126.83641466219117","1","2021-01-29"
"강서구","C271023_화곡3동 1036-12(고정1) 화곡로21길43 CU편의점 방향","방범","37.54337871881375","126.8364174920107","1","2021-01-29"
"강서구","C271021_화곡3동 1039-7","방범","37.54348529376602","126.83370260308808","1","2021-01-29"
"강서구","C241020(A5007)_우장산동 1061-16","방범","37.543495","126.84226","1","2021-01-29"
"강서구","C311015(A1150)_화곡본동 98-22","방범","37.54349967589185","126.84394978834184","1","2021-01-29"
"강서구","C311015(A1150)_화곡본동 98-22(보조1) 화곡로 34길 방향","방범","37.54351","126.84394","1","2021-01-29"
"강서구","C241011(A1107)_우장산동 1053","방범","37.543514","126.83949","1","2021-01-29"
"강서구","C241011(A1107)_우장산동 1053(보조1)화곡5-1공영주차장방향","방범","37.543514","126.83949","1","2021-01-29"
"강서구","C241036_우장산동(화곡동) 1054(고정1) 강서로34길 17방향","방범","37.543524520825926","126.8399168679137","1","2021-01-29"
"강서구","C241036_우장산동(화곡동) 1054(고정2) 강서로36길 15방향","방범","37.543524520825926","126.8399168679137","1","2021-01-29"
"강서구","C271003(A1089)_화곡3동 1020-3","방범","37.54365150008883","126.83523780631836","1","2021-01-29"
"강서구","C271003(A1089)_화곡3동 1020-3(보조1) 건형센스빌 (강서로37길 56) 방향","방범","37.54366","126.83524","1","2021-01-29"
"강서구","C271004(A1090)_화곡3동 1033-43","방범","37.54368242403748","126.83753263898663","1","2021-01-29"
"강서구","C271004(A1090)_화곡3동 1033-43(보조1) 화곡로21길71 스위트드림 아파트 방향","방범","37.54369","126.83752","1","2021-01-29"
"강서구","C241044_우장산동 1030-26(고정1)","방범","37.54388734757285","126.83916055210336","1","2021-01-29"
"강서구","C311044_화곡본동 46-148(고정1) 화곡본2 공영주차장 방향","방범","37.543900779427645","126.84761109955082","1","2021-01-29"
"강서구","C311044_화곡본동 46-148(고정2) 삼성그린빌 까치산로12길15 방향","방범","37.543900779427645","126.84761109955082","1","2021-01-29"
"강서구","C311044_화곡본동 46-148(고정3) 좌측은 청구빌라트 우측은 비둘기공원 방향","방범","37.543900779427645","126.84761109955082","1","2021-01-29"
"강서구","C311051_화곡본동 98-168(고정1) 구름공원 방향","방범","37.54390264172431","126.84509805952118","1","2021-01-29"
"강서구","C311051_화곡본동 98-168(고정2) 화곡지구대 방향","방범","37.54390264172431","126.84509805952118","1","2021-01-29"
"강서구","C311051_화곡본동 98-168(고정3) 국민은행 화곡본동지점 방향","방범","37.54390264172431","126.84509805952118","1","2021-01-29"
"강서구","C311069_화곡본동 46-187(고정2) - 은하빌 방향","방범","37.5439193","126.849001","1","2021-01-29"
"강서구","C311069_화곡본동 46-187(고정3) - 까치산로14길 60 방향","방범","37.5439193","126.849001","1","2021-01-29"
"강서구","C311069_화곡본동 46-187(고정4) - 큰별 어린이공원 방향","방범","37.5439193","126.849001","1","2021-01-29"
"강서구","C311069_화곡본동 46-187(고정1) - 한양빌라3차 방향","방범","37.543919306170146","126.84900101863854","1","2021-01-29"
"강서구","C271027_화곡3동 1018-10(고정1) 강서로37길 66 방향","방범","37.54392451024224","126.8339010461184","1","2021-01-29"
"강서구","C271027_화곡3동 1018-10(고정2) 화곡푸르지오 아파트 방향","방범","37.54393674411718","126.83467210716135","1","2021-01-29"
"강서구","C241041_우장산동 1059-33(고정2)","방범","37.5440099","126.842519","1","2021-01-29"
"강서구","C241041_우장산동 1059-33(고정1)","방범","37.544009911118174","126.84251931808748","1","2021-01-29"
"강서구","C241053_우장산동(화곡동) 1059-28(고정1)","방범","37.54421423981707","126.84213169816677","1","2021-01-29"
"강서구","C311033_화곡본동 98-15","방범","37.54421478998501","126.84409351121614","1","2021-01-29"
"강서구","C311033_화곡본동 98-15((보조1) 화곡로 34길 32 방향","방범","37.544224","126.8441","1","2021-01-29"
"강서구","C271024_화곡3동 1020-17(고정2) 강서로41길 48 광영다모은정 아파트 방향","방범","37.544233807982934","126.83620615308412","1","2021-01-29"
"강서구","C271024_화곡3동 1020-17(고정1) 대원공원 방향","방범","37.54424280506715","126.83620324331535","1","2021-01-29"
"강서구","C311006(A1140)_화곡본동 46-133","방범","37.54426796994516","126.84881630791204","1","2021-01-29"
"강서구","C311006(A1140)_화곡본동 46-133(보조1) 까치산로 14길 26 보은빌라 방향","방범","37.544273","126.8488","1","2021-01-29"
"강서구","C271014_화곡3동 1032 - 카메라 1","방범","37.544315","126.83698","1","2021-01-29"
"강서구","C271014_화곡3동 1032(보조1) - 좌측은 강서로 대로 우측은 화곡3동 주민센터 방향","방범","37.544315","126.83698","1","2021-01-29"
"강서구","C271014_화곡3동 1032(보조2) 좌측은 화곡로21길 71 스위트드림 아파트 우측은 대원공원 방향","방범","37.544315","126.83698","1","2021-01-29"
"강서구","C241042_우장산동 1026-27(고정2)","방범","37.5443174","126.838874","1","2021-01-29"
"강서구","C241042_우장산동 1026-27(고정1)","방범","37.544317412486755","126.83887409363993","1","2021-01-29"
"강서구","C271002(A1088)_화곡3동 1016-34","방범","37.544386033185326","126.83482659408672","1","2021-01-29"
"강서구","C241030_우장산동 1030(고정2)","방범","37.54438628684929","126.83928666973887","1","2021-01-29"
"강서구","C241030_우장산동 1030(고정1)","방범","37.54439080918272","126.83928945982514","1","2021-01-29"
"강서구","C271002(A1088)_화곡3동 1016-34(보조1) 화곡 푸르지오 아파트단지 방향","방범","37.544403","126.83482","1","2021-01-29"
"강서구","C241013(A1109)_우장산동 111-30","방범","37.54440893953773","126.8433475200399","1","2021-01-29"
"강서구","C311040_화곡본동 24-200(고정1) 초록마을로 4길 14 다정주택 방향","방범","37.544411260576815","126.84579545030864","1","2021-01-29"
"강서구","C311040_화곡본동 24-200(고정2) 초록마을로 3길 16 제선주택 방향","방범","37.544411260576815","126.84579545030864","1","2021-01-29"
"강서구","C311042_화곡본동 24-236(고정1) 초록마을로 3 세븐일레븐 편의점 방향","방범","37.54442658950754","126.84449634571453","1","2021-01-29"
"강서구","C311042_화곡본동 24-236(고정2) 초록마을로 2길 27 방향","방범","37.54442658950754","126.84449634571453","1","2021-01-29"
"강서구","C311042_화곡본동 24-236(고정3) 초록마을로4길 16 동광빌라 5차 방향","방범","37.54442658950754","126.84449634571453","1","2021-01-29"
"강서구","C241013(A1109)_우장산동 111-30(보조1)화곡로33길 15방향","방범","37.54442694981096","126.8433445320618","1","2021-01-29"
"강서구","C311061_화곡본동 24-562(고정1) 초록마을로 9-8 대림타운 방향","방범","37.54463733360282","126.84552179378811","1","2021-01-29"
"강서구","C271036_화곡3동 1016(고정2)","방범","37.5448033","126.832947","1","2021-01-29"
"강서구","C271036_화곡3동 1016(고정1)","방범","37.54480333949599","126.83294789425676","1","2021-01-29"
"강서구","C271015_화곡동 1024-19","방범","37.544803713110326","126.83577345051043","1","2021-01-29"
"강서구","C271015_화곡동 1024-19(보조1) 강서로 33가길 86 프라임 팰리스 아파트 우측방향","방범","37.544803713110326","126.83577345051043","1","2021-01-29"
"강서구","C271015_화곡동 1024-19(보조2) - 좌측은 오복뜨란채 아파트 방향 우측은 화곡3파출소 방향","방범","37.544803713110326","126.83577345051043","1","2021-01-29"
"강서구","C271017_화곡3동 1024-16","방범","37.544845","126.83633","1","2021-01-29"
"강서구","C271017_화곡3동 1024-16(보조1) 강서로 대로 방향","방범","37.544845","126.83633","1","2021-01-29"
"강서구","C241009(A1105)_우장산동 1029","방범","37.544857","126.838455","1","2021-01-29"
"강서구","C271034_화곡3동 1022(고정1)","방범","37.54505390651899","126.83593868980246","1","2021-01-29"
"강서구","C311075_화곡본동 70-42(고정1) - 초록마을로 5-19 방향","방범","37.5450585976363","126.84550113069086","1","2021-01-29"
"강서구","C271028_화곡3동 1015-7(고정2) 상우빌라 강서로45다길 62-7 방향","방범","37.545085524222244","126.8337959098414","1","2021-01-29"
"강서구","C311075_화곡본동 70-42(고정2) - 초록마을로 6-1 방향","방범","37.545085762145085","126.84552353340439","1","2021-01-29"
"강서구","C271028_화곡3동 1015-7(고정1) 화곡로13길 120 방향","방범","37.54508779343525","126.83379871967166","1","2021-01-29"
"강서구","C311031_화곡본동 24-175(삼거리) - 카메라 1","방범","37.545094","126.84749","1","2021-01-29"
"강서구","C311031_화곡본동 24-175(삼거리)(보조1) 까치산로 14길 26-7 동진아트빌 방향","방범","37.545094","126.84749","1","2021-01-29"
"강서구","C311066_화곡본동 70-46(고정2) - 화곡초등학교 방향","방범","37.5451317","126.844936","1","2021-01-29"
"강서구","C311066_화곡본동 70-46(고정1) - 꿈돌이 어린이공원 방향","방범","37.54513170269627","126.84493683881982","1","2021-01-29"
"강서구","C241032_우장산동 111-8(고정1)화곡로방향","방범","37.54514970831417","126.84324197128012","1","2021-01-29"
"강서구","C241032_우장산동 111-8(고정2)화곡로33길 22방향","방범","37.54514970831417","126.84324197128012","1","2021-01-29"
"강서구","C311014(A1149)_화곡본동 772-40","방범","37.54515605947832","126.85050094051459","1","2021-01-29"
"강서구","C311005(A1138)_화곡본동 24-144","방범","37.54517155152118","126.84656989436207","1","2021-01-29"
"강서구","C311082_화곡본동 70-42(고정1)","방범","37.54519934668465","126.8456476322277","1","2021-01-29"
"강서구","C241010(A1106)_우장산동 1059-19(보조1)화곡로35길 23-34방향","방범","37.54521","126.84207","1","2021-01-29"
"강서구","C241010(A1106)_우장산동 1059-19","방범","37.54522427162904","126.8420640241533","1","2021-01-29"
"강서구","C241043_우장산동 1026-2(고정3)","방범","37.54525616001379","126.83809320898271","1","2021-01-29"
"강서구","C241043_우장산동 1026-2(고정1)","방범","37.54525620760373","126.83810169865704","1","2021-01-29"
"강서구","C241043_우장산동 1026-2(고정2)","방범","37.54526288803264","126.83808748942992","1","2021-01-29"
"강서구","C311023_화곡본동 46-306 - 카메라 1","방범","37.5453","126.848755","1","2021-01-29"
"강서구","C161036_등촌2동 513-2(고정1)","방범","37.54531775061795","126.86157013847644","1","2021-01-29"
"강서구","C161019(A8011)_등촌2동 514-43 (등촌로39가길27)","방범","37.54538","126.859116","1","2021-01-29"
"강서구","C311064_화곡본동 46-370(고정3) - 큰별 어린이공원 방향","방범","37.545456","126.848261","1","2021-01-29"
"강서구","C311064_화곡본동 46-370(고정2) - 까치산로 방향","방범","37.54545607134237","126.84826158063968","1","2021-01-29"
"강서구","C241024_우장산동 1027-39","방범","37.54547","126.839905","1","2021-01-29"
"강서구","C241024_우장산동 1027-39(보조1)화곡로31가길 7방향","방범","37.54547","126.839905","1","2021-01-29"
"강서구","C241014(A1110)_우장산동 111-97","방범","37.54547042182787","126.84377969535272","1","2021-01-29"
"강서구","C291027_화곡6동 42-109(고정1) 까치산로 18길 방향","방범","37.545474548546664","126.85228110364213","1","2021-01-29"
"강서구","C291027_화곡6동 42-109(고정2) 배드민턴 클럽 방향","방범","37.545474548546664","126.85228110364213","1","2021-01-29"
"강서구","C291027_화곡6동 42-109(고정3) 봉제산 방향","방범","37.545474548546664","126.85228110364213","1","2021-01-29"
"강서구","C311064_화곡본동 46-370(고정1) - 좌측은 황제빌라 방향 우측은 큰별 어린이공원 방향","방범","37.54547919737821","126.84836892088317","1","2021-01-29"
"강서구","C241014(A1110)_우장산동 111-97(보조1)강서힐스테이트아파트방향","방범","37.545494","126.84378","1","2021-01-29"
"강서구","C241046_우장산동 1059","방범","37.54555762033175","126.84122906153322","1","2021-01-29"
"강서구","C241045_우장산동 1059-3(고정2)","방범","37.5455734","126.841621","1","2021-01-29"
"강서구","C241045_우장산동 1059-3(고정1)","방범","37.5455734673844","126.8416212251752","1","2021-01-29"
"강서구","C161029_등촌2동 524-4(고정2) (4시 등촌로)","방범","37.5456199","126.861604","1","2021-01-29"
"강서구","C161029_등촌2동 524-4(고정1) (10시 등촌로예원교회)","방범","37.54561993859772","126.8616043518226","1","2021-01-29"
"강서구","C161029_등촌2동 524-4(고정3) (1시 영일고등학교)","방범","37.545724253646746","126.86173329250343","1","2021-01-29"
"강서구","C161038_등촌2동 514-62(고정1)","방범","37.545755914297224","126.86092397937618","1","2021-01-29"
"강서구","C291020_화곡6동 42-96","방범","37.545825862751684","126.85306481927623","1","2021-01-29"
"강서구","C241017(A1113)_우장산동 95-53","방범","37.545837","126.844505","1","2021-01-29"
"강서구","C241017(A1113)_우장산동 95-53(보조1)홍진시범아파트방향","방범","37.545837","126.844505","1","2021-01-29"
"강서구","C311054_화곡본동 29-78(고정2) 까치산로 12길 7-17 주연어린이집 방향","방범","37.5458486","126.848195","1","2021-01-29"
"강서구","C311054_화곡본동 29-78(고정1) 화곡제일침례교회 방향","방범","37.54584865791388","126.84819551100298","1","2021-01-29"
"강서구","C161026_등촌2동 719(고정2) (7시 등촌아이파크아파트 101동)","방범","37.54595226704844","126.86180012474271","1","2021-01-29"
"강서구","C161026_등촌2동 719(고정1) (1시 영일고등학교)","방범","37.54596128008421","126.86180004790248","1","2021-01-29"
"강서구","C311039_화곡본동 29-90","방범","37.54596140113585","126.84871552342221","1","2021-01-29"
"강서구","C241027_우장산동 95-81(고정1)홍진시범아파트방향","방범","37.54599","126.84346","1","2021-01-29"
"강서구","C241027_우장산동 95-81(고정2)화곡로방향","방범","37.54599","126.84346","1","2021-01-29"
"강서구","G164002(G9011)_등촌2동 524-13 (그린파킹)","방범","37.54599","126.860695","1","2021-01-29"
"강서구","C271029_화곡3동 1015-31(고정1) 화곡3파출소 방향","방범","37.546008817477606","126.83489141623236","1","2021-01-29"
"강서구","C241025_우장산동 95-76 - 카메라 1","방범","37.54603134724473","126.84271564406516","1","2021-01-29"
"강서구","C271001(A1087)_화곡3동 1014-35","방범","37.546047","126.835495","1","2021-01-29"
"강서구","C271001(A1087)_화곡3동 1014-35(보조1) 초록아파트 방향","방범","37.546047","126.835495","1","2021-01-29"
"강서구","C291035_화곡6동 42-79(고정1) 까치산로 18라길 35 롯데빌라 방향","방범","37.546050494352535","126.85252516583102","1","2021-01-29"
"강서구","C291035_화곡6동 42-79(고정2) 까치산로 18라길 10-3 승석힐타운 방향","방범","37.54606396732753","126.85251655910474","1","2021-01-29"
"강서구","P243004_우장산동(화곡동) 1165-3(고정2)","방범","37.5461372","126.836785","1","2021-01-29"
"강서구","P243004_우장산동(화곡동) 1165-3(고정3)","방범","37.5461372","126.836785","1","2021-01-29"
"강서구","P243004_우장산동(화곡동) 1165-3(고정1)","방범","37.54613729868847","126.83678505162201","1","2021-01-29"
"강서구","C291013(A4028)_화곡6동 29-221","방범","37.546154","126.851456","1","2021-01-29"
"강서구","C311028(A8015)_화곡본동 29-234","방범","37.546207","126.84941","1","2021-01-29"
"강서구","C241051_우장산동(화곡동) 95-25(고정2)","방범","37.5462791","126.843749","1","2021-01-29"
"강서구","C241051_우장산동(화곡동) 95-25(고정1)","방범","37.54627911898865","126.84374945211901","1","2021-01-29"
"강서구","C291040_화곡6동 42-53(고정2) 까치산로 18라길 5-54 강서 타워 아파트 방향","방범","37.546291965022874","126.85259099899457","1","2021-01-29"
"강서구","C291040_화곡6동 42-53(고정1) 까치산로 18라길 5-4 청구빌라 방향","방범","37.54630551558384","126.85259654194826","1","2021-01-29"
"강서구","C161031_등촌2동 518-24(고정2)","방범","37.5463773","126.858963","1","2021-01-29"
"강서구","C161031_등촌2동 518-24(고정1)","방범","37.54637736517108","126.85896324624258","1","2021-01-29"
"강서구","C311070_화곡본동 29-247(고정2)","방범","37.54638490119062","126.84868218201959","1","2021-01-29"
"강서구","C161024_등촌2동 518-24(고정1) (11시 씨지아름채)","방범","37.54638578141101","126.85904842336782","1","2021-01-29"
"강서구","C161008(A2014)_등촌2동 522-23","방범","37.546391537641824","126.86031766397062","1","2021-01-29"
"강서구","C161008(A2014)_등촌2동 522-23(보조1) (5시 성산중앙교회)","방범","37.546406","126.86032","1","2021-01-29"
"강서구","C161008(A2014)_등촌2동 522-23(보조2) (11시 등촌초교)","방범","37.546406","126.86032","1","2021-01-29"
"강서구","C311070_화곡본동 29-247(고정1)","방범","37.5464232481145","126.84867640651026","1","2021-01-29"
"강서구","C311063_화곡본동 24-70(고정1) 화곡로 42나길 3-6 RANG HOTEL 방향","방범","37.54645779996489","126.84710487188921","1","2021-01-29"
"강서구","C311063_화곡본동 24-70(고정2) 화곡로 42길 27 샤르망 모텔 방향","방범","37.54646681297376","126.84710479327827","1","2021-01-29"
"강서구","C311056_화곡본동 26-17(고정1) 화곡로 42나길 14-8 효성하이츠빌라 방향","방범","37.546635649854366","126.84748255210665","1","2021-01-29"
"강서구","C311030_화곡본동 24-536 - 카메라 1","방범","37.54664","126.84609","1","2021-01-29"
"강서구","C311030_화곡본동 24-536(보조1) 화곡로 42나길 16 호텔 힐 방향","방범","37.54664","126.84609","1","2021-01-29"
"강서구","C311030_화곡본동 24-536(보조2) 꿈돌이 어린이공원 방향","방범","37.54664","126.84609","1","2021-01-29"
"강서구","C191008_발산1동 223-4(남부순환로 19길 50)","방범","37.546657250057756","126.82408322648436","1","2021-01-29"
"강서구","C271012(A7010)[경찰방범]_화곡3동 1012-3","방범","37.546722435046895","126.83491818996609","1","2021-01-29"
"강서구","C241016(A1112)_우장산동 84-19(보조1)화곡로41길 36방향","방범","37.54672503","126.8438244","1","2021-01-29"
"강서구","C241016(A1112)_우장산동 84-19화곡로방향","방범","37.54672503","126.8438244","1","2021-01-29"
"강서구","C241028_우장산동 84-16","방범","37.54679753457403","126.84416427415145","1","2021-01-29"
"강서구","C161016_등촌2동 515-8","방범","37.5468","126.85731","1","2021-01-29"
"강서구","C161016_등촌2동 515-8(보조1) (6시 등촌파크빌라)","방범","37.5468","126.85731","1","2021-01-29"
"강서구","C311018_화곡본동 29-41","방범","37.54683","126.84782","1","2021-01-29"
"강서구","C311018_화곡본동 29-41(보조1) 화곡로 44길 두산빌딩 방향","방범","37.54683","126.84782","1","2021-01-29"
"강서구","C311018_화곡본동 29-41(보조2) 초록마을로3길 49 쟈스민 모텔 방향","방범","37.54683","126.84782","1","2021-01-29"
"강서구","C191011_발산1동(외발산동) 219-1","방범","37.54703","126.82243","1","2021-01-29"
"강서구","C271019_화곡3동 1009","방범","37.54705898569159","126.8333113801739","1","2021-01-29"
"강서구","C271013_화곡3동 1009-8","방범","37.54708","126.834854","1","2021-01-29"
"강서구","C311062_화곡본동 970-7(고정2) 까치산로 18길 8 주여빌딩 방향","방범","37.5471165","126.849292","1","2021-01-29"
"강서구","C311062_화곡본동 970-7(고정1) 화곡 제일침례교회 방향","방범","37.54711659032934","126.84929245611184","1","2021-01-29"
"강서구","G164001(G9010)_등촌2동 519-25 (그린파킹)","방범","37.54719","126.85969","1","2021-01-29"
"강서구","C291005(A1120)_화곡6동963-20(보조1) 삼성훼미리 빌라(까치산로18길 30)방향","방범","37.547195","126.85011","1","2021-01-29"
"강서구","C291005(A1120)_화곡6동 963-20","방범","37.547220253368934","126.85011228620334","1","2021-01-29"
"강서구","C291003(A1118)_화곡6동 952-4","방범","37.54724","126.85176","1","2021-01-29"
"강서구","C311071_화곡본동 29-20(고정2) - 삼성화이트빌 방향","방범","37.5472885","126.847807","1","2021-01-29"
"강서구","C311071_화곡본동 29-20(고정1) - 송림맨션 방향","방범","37.547288578730445","126.84780752643326","1","2021-01-29"
"강서구","C161005_등촌2동 522-1","방범","37.54735140689785","126.86134669818386","1","2021-01-29"
"강서구","C161005_등촌로 39바길 26(보조1) (7시 등촌펠리스)","방범","37.54736","126.86134","1","2021-01-29"
"강서구","C191035_발산1동(외발산동) 216-23(고정2)","방범","37.5474671","126.824126","1","2021-01-29"
"강서구","C191035_발산1동(외발산동) 216-23(고정3)","방범","37.5474671","126.824126","1","2021-01-29"
"강서구","C191035_발산1동(외발산동) 216-23(고정1)","방범","37.54746713336436","126.82412670815053","1","2021-01-29"
"강서구","C241015_우장산동 73-79(고정1)화곡로43가길 19방향","방범","37.54749","126.84499","1","2021-01-29"
"강서구","C241015_우장산동 73-79(고정2)우장산파크빌방향","방범","37.54749","126.84499","1","2021-01-29"
"강서구","C241015_우장산동 73-79(고정3)화곡로43가길 11방향","방범","37.54749","126.84499","1","2021-01-29"
"강서구","C291031_화곡6동 962-18(고정2) 까치산로 18길 25-8 청우파크빌 방향","방범","37.54763023058366","126.8513171894079","1","2021-01-29"
"강서구","C291031_화곡6동 962-18(고정1) 까치산로20길 29 방향","방범","37.54763243719502","126.85130867991481","1","2021-01-29"
"강서구","C311017(A4027)_화곡본동 972-14","방범","37.5477","126.84851","1","2021-01-29"
"강서구","C311017(A4027)_화곡본동 972-14(보조1) 화곡로44가길 6-6 방향","방범","37.5477","126.84851","1","2021-01-29"
"강서구","C271035_화곡3동 1007-4(고정2)","방범","37.547744","126.835515","1","2021-01-29"
"강서구","C271035_화곡3동 1007-4(고정1)","방범","37.547744027343036","126.83551586060861","1","2021-01-29"
"강서구","C161022_등촌2동 510-7(고정1) (7시 영일고등학교)","방범","37.547803027603585","126.86235603200467","1","2021-01-29"
"강서구","C161022_등촌2동 510-7(고정2) (1시 등촌로 51가길 33앞 삼거리)","방범","37.547803027603585","126.86235603200467","1","2021-01-29"
"강서구","C161022_등촌2동 510-7(고정3) (3시 등촌로큰길)","방범","37.547803027603585","126.86235603200467","1","2021-01-29"
"강서구","C291019_화곡6동 969-5 (주여빌딩 방향)","방범","37.54787588772954","126.8500952733621","1","2021-01-29"
"강서구","C291019_화곡6동 969-5(보조1) 강서어린이집 방향","방범","37.54787588772954","126.8500952733621","1","2021-01-29"
"강서구","C191029_발산1동(내발산동) 723-9(고정2)","방범","37.5479688","126.836055","1","2021-01-29"
"강서구","C191029_발산1동(내발산동) 723-9(고정1)","방범","37.54796887851161","126.83605590782821","1","2021-01-29"
"강서구","C231027_염창동 282-7(고정3)","방범","37.5479839","126.876558","1","2021-01-29"
"강서구","C231027_염창동 282-7(고정1)","방범","37.54798395801262","126.87655870599447","1","2021-01-29"
"강서구","C231025_염창동 282-4(고정2)","방범","37.5479964","126.876213","1","2021-01-29"
"강서구","C231025_염창동 282-4(고정1)삼정그린코아아파트방향","방범","37.54799647742294","126.87621357888831","1","2021-01-29"
"강서구","C231025_염창동 282-4(고정3)골든서울호텔방향","방범","37.54799647742294","126.87621357888831","1","2021-01-29"
"강서구","C241052_우장산동(화곡동) 73-5(고정1)","방범","37.548035649576384","126.84534686193736","1","2021-01-29"
"강서구","C241035_우장산동(화곡동) 1159(고정2)우장산역방향","방범","37.548036033472925","126.83795542230749","1","2021-01-29"
"강서구","C161018_등촌2동 520-6 - 카메라 1","방범","37.548038060784215","126.86058450111775","1","2021-01-29"
"강서구","C161018_등촌2동 520-6(보조1) (2시)","방범","37.548038060784215","126.86058450111775","1","2021-01-29"
"강서구","C241035_우장산동(화곡동) 1159(고정1)우장산동주민센터방향","방범","37.548045062330495","126.83795817258725","1","2021-01-29"
"강서구","C231027_염창동 282-7(고정4)","방범","37.5481009","126.876523","1","2021-01-29"
"강서구","C231027_염창동 282-7(고정2)","방범","37.548100948452785","126.87652376985213","1","2021-01-29"
"강서구","C291023_화곡6동 967-21","방범","37.5481088051422","126.8510639895641","1","2021-01-29"
"강서구","C291023_화곡6동 967-21(보조1) 까치산로20가길 10 동서빌라 방향","방범","37.5481088051422","126.8510639895641","1","2021-01-29"
"강서구","C291023_화곡6동 967-21(보조2) 까치산로 방향","방범","37.5481088051422","126.8510639895641","1","2021-01-29"
"강서구","C191020_발산1동(내발산동) 722-1(고정2) (11시 발산초등학교)","방범","37.548157161712275","126.83265349688643","1","2021-01-29"
